Date de début;Date de fin;Organisme;code zas;Zas;code site;nom site;type d'implantation;Polluant;type d'influence;Réglementaire;type d'évaluation;type de valeur;valeur;valeur brute;unité de mesure;taux de saisie;couverture temporelle;couverture de données;code qualité;validité;Latitude;Longitude;Ville;CODGEO;Libellé;Part des effectifs des commerces, transports, services divers 2023;Population municipale 2022;Nombre d'établissements 2023;Densité de population (historique depuis 1876) 2022;Taux d'activité par tranche d'âge 2022;Médiane du niveau de vie 2021;Part des effectifs de l'industrie 2023;Part des effectifs de la construction 2023;Nb_hotels_2022;Nb_campings_2022
2022/01/01 00:00:00;2022/12/31 23:59:59;ATMO GRAND EST;FR44ZAG02;ZAG METZ;FR01011;Metz-Centre;Urbaine;O3;Fond;Oui;mesures fixes;Moy. annuelle;51.0;50.61413120988826;µg-m3;;;;R;1;49.119442;6.180833;Metz;57463;Metz;45.8;121695;5203;2901.6;70.9;20940;4.6;3.6;26.0;1.0
2022/01/01 00:00:00;2022/12/31 23:59:59;ATMO GRAND EST;FR44ZAG02;ZAG METZ;FR01018;Scy-Chazelles;Périurbaine;O3;Fond;Oui;mesures fixes;Moy. annuelle;54.0;53.926047444824746;µg-m3;;;;R;1;49.107502;6.122775;Scy-Chazelles;57642;Scy-Chazelles;67.8;2665;80;589.6;75.3;28380;0.3;7.9;0.0;0.0
2022/01/01 00:00:00;2022/12/31 23:59:59;ATMO GRAND EST;FR44ZAG02;ZAG METZ;FR01020;Thionville-Centre;Urbaine;O3;Fond;Oui;mesures fixes;Moy. annuelle;53.0;53.33349240236088;µg-m3;;;;R;1;49.358337;6.156942;Thionville;57672;Thionville;43.8;42778;1494;857.6;77,0;24850;6.4;2.9;8.0;1.0
2022/01/01 00:00:00;2022/12/31 23:59:59;ATMO GRAND EST;FR44ZAG02;ZAG METZ;FR01021;Thionville-Garche;Périurbaine;O3;Fond;Oui;mesures fixes;Moy. annuelle;57.0;56.85608928338337;µg-m3;;;;R;1;49.394444;6.201392;Thionville;57672;Thionville;43.8;42778;1494;857.6;77,0;24850;6.4;2.9;8.0;1.0
2022/01/01 00:00:00;2022/12/31 23:59:59;ATMO SUD;FR93ZAG01;ZAG MARSEILLE-AIX;FR02001;Berre l'Etang;Périurbaine;O3;Fond;Oui;mesures fixes;Moy. annuelle;66.0;66.1762232862315;µg-m3;;;;R;1;43.486234;5.171939;Berre-l'Étang;13014;Berre-l'Étang;45.2;13941;461;319.5;74.1;20370;19.1;14.7;1.0;0.0
2022/01/01 00:00:00;2022/12/31 23:59:59;ATMO SUD;FR93ZAG01;ZAG MARSEILLE-AIX;FR02004;Martigues P. Central;Urbaine;O3;Fond;Oui;mesures fixes;Moy. annuelle;74.0;74.01480549199084;µg-m3;;;;R;1;43.416661;5.042731;Martigues;13056;Martigues;39.3;48818;1445;683.3;73.3;22570;16.1;4.8;11.0;7.0
2022/01/01 00:00:00;2022/12/31 23:59:59;ATMO SUD;FR93ZAG01;ZAG MARSEILLE-AIX;FR02012;Istres;Urbaine;O3;Fond;Oui;mesures fixes;Moy. annuelle;65.0;65.11177915545687;µg-m3;;;;R;1;43.506149;4.982898;Istres;13047;Istres;35.6;44044;989;387.3;77,0;22710;10.9;5.4;7.0;1.0
2022/01/01 00:00:00;2022/12/31 23:59:59;ATMO SUD;FR93ZAG01;ZAG MARSEILLE-AIX;FR02021;Sausset les Pins;Périurbaine;O3;Fond;Oui;mesures fixes;Moy. annuelle;73.0;73.44703017343791;µg-m3;;;;R;1;43.331245;5.117696;Sausset-les-Pins;13104;Sausset-les-Pins;51.2;7556;183;624.5;74.8;28750;3.8;2.8;2.0;0.0
2022/01/01 00:00:00;2022/12/31 23:59:59;ATMO SUD;FR93ZRE02;ZR PROVENCE-ALPES-COTE-D-AZUR;FR02022;Arles;Urbaine;O3;Fond;Oui;mesures fixes;Moy. annuelle;62.0;62.26242816970285;µg-m3;;;;R;1;43.675114;4.62921;Arles;13004;Arles;45.4;51156;2348;67.4;68.4;20060;4.7;4.7;43.0;5.0
2022/01/01 00:00:00;2022/12/31 23:59:59;ATMO SUD;FR93ZAG01;ZAG MARSEILLE-AIX;FR02041;SALON;Urbaine;O3;Fond;Oui;mesures fixes;Moy. annuelle;65.0;65.00077972709552;µg-m3;;;;R;1;43.639002;5.101097;Salon-de-Provence;13103;Salon-de-Provence;52.7;44553;1892;633.8;75.2;22400;5.4;5.1;16.0;2.0
2022/01/01 00:00:00;2022/12/31 23:59:59;ATMO SUD;FR93ZRE02;ZR PROVENCE-ALPES-COTE-D-AZUR;FR03027;PLAN AUPS/STE  BAUME;Rurale près des villes;O3;Fond;Oui;mesures fixes;Moy. annuelle;84.0;83.55530468840013;µg-m3;;;;R;1;43.335201;5.727365;Plan-d'Aups-Sainte-Baume;83093;Plan-d'Aups-Sainte-Baume;28.4;2430;45;97.6;79.7;24970;2.8;11.4;2.0;0.0
2022/01/01 00:00:00;2022/12/31 23:59:59;ATMO SUD;FR93ZAG01;ZAG MARSEILLE-AIX;FR03032;AUBAGNE LES PASSONS;Urbaine;O3;Fond;Oui;mesures fixes;Moy. annuelle;67.0;66.54851303249511;µg-m3;;;;R;1;43.293138;5.574184;Aubagne;13005;Aubagne;51.5;47724;2543;869.3;73.8;22550;15.4;5.3;5.0;1.0
2022/01/01 00:00:00;2022/12/31 23:59:59;ATMO SUD;FR93ZAG01;ZAG MARSEILLE-AIX;FR03037;VALLEE HUVEAUNE;Périurbaine;O3;Fond;Oui;mesures fixes;Moy. annuelle;54.0;53.81782339904344;µg-m3;;;;R;1;43.283341;5.511384;La Penne-sur-Huveaune;13070;La Penne-sur-Huveaune;67,0;6618;297;1859,0;76.1;24300;8.8;6.6;3.0;0.0
2022/01/01 00:00:00;2022/12/31 23:59:59;ATMO SUD;FR93ZAG01;ZAG MARSEILLE-AIX;FR03043;MARSEILLE 5 AVENUES;Urbaine;O3;Fond;Oui;mesures fixes;Moy. annuelle;58.0;57.908698163335984;µg-m3;;;;R;1;43.305287;5.394716;Marseille;13204;;;;;;;;;;;
2022/01/01 00:00:00;2022/12/31 23:59:59;ATMO SUD;FR93ZAG01;ZAG MARSEILLE-AIX;FR03048;AIX PLATANES;Périurbaine;O3;Fond;Oui;mesures fixes;Moy. annuelle;60.0;60.14906071019471;µg-m3;;;;R;1;43.555777;5.461232;Aix-en-Provence;13001;Aix-en-Provence;60.9;147933;8570;795,0;70.3;25810;4.7;5.5;48.0;2.0
2022/01/01 00:00:00;2022/12/31 23:59:59;ATMO SUD;FR93ZAG03;ZAG TOULON;FR03064;LA VALETTE/LA GARDE;Périurbaine;O3;Fond;Oui;mesures fixes;Moy. annuelle;29.0;29.494852941176475;µg-m3;;;;N;-1;43.135902;6.011513;La Valette-du-Var;83144;La Valette-du-Var;75.5;23660;1071;1526.5;76.6;23810;1.7;3.6;4.0;0.0
2022/01/01 00:00:00;2022/12/31 23:59:59;ATMO SUD;FR93ZRE02;ZR PROVENCE-ALPES-COTE-D-AZUR;FR03067;BRIGNOLES;Périurbaine;O3;Fond;Oui;mesures fixes;Moy. annuelle;66.0;66.12414385522847;µg-m3;;;;R;1;43.398731;6.075611;Brignoles;83023;Brignoles;51,0;17846;1028;253,0;72.2;19980;6.9;6.1;7.0;0.0
2022/01/01 00:00:00;2022/12/31 23:59:59;ATMO SUD;FR93ZAG03;ZAG TOULON;FR03069;HYERES;Urbaine;O3;Fond;Oui;mesures fixes;Moy. annuelle;75.0;75.29301960784322;µg-m3;;;;R;1;43.119737;6.131319;Hyères;83069;Hyères;46.9;55384;2340;418.4;72.6;22960;3.8;3.3;35.0;26.0
2022/01/01 00:00:00;2022/12/31 23:59:59;ATMO SUD;FR93ZRE02;ZR PROVENCE-ALPES-COTE-D-AZUR;FR03070;ESTEREL;Périurbaine;O3;Fond;Oui;mesures fixes;Moy. annuelle;62.0;61.98032503457819;µg-m3;;;;R;1;43.437874;6.76839;Fréjus;83061;Fréjus;48.5;58499;2567;572,0;74.5;21960;5.3;10.4;19.0;19.0
2022/01/01 00:00:00;2022/12/31 23:59:59;ATMO SUD;FR93ZAG03;ZAG TOULON;FR03071;TOULON CLARET;Urbaine;O3;Fond;Oui;mesures fixes;Moy. annuelle;65.0;65.25747636278747;µg-m3;;;;R;1;43.131113;5.924184;Toulon;83137;Toulon;31.7;180834;4967;4221.1;71.3;20960;7.2;2.5;17.0;0.0
2022/01/01 00:00:00;2022/12/31 23:59:59;ATMO SUD;FR93ZAG04;ZAG AVIGNON;FR03080;AVIGNON   MAIRIE;Urbaine;O3;Fond;Oui;mesures fixes;Moy. annuelle;61.0;60.93608010127745;µg-m3;;;;R;1;43.949673;4.804341;Avignon;84007;Avignon;42.5;91760;5020;1413.6;68.3;17690;6.4;3,0;44.0;3.0
2022/01/01 00:00:00;2022/12/31 23:59:59;ATMO SUD;FR93ZRE02;ZR PROVENCE-ALPES-COTE-D-AZUR;FR03086;APT;Périurbaine;O3;Fond;Oui;mesures fixes;Moy. annuelle;61.0;60.79608069164272;µg-m3;;;;R;1;43.88012;5.362038;Apt;84003;Apt;40.3;10297;639;231,0;70.4;18860;21.6;8.4;8.0;3.0
2022/01/01 00:00:00;2022/12/31 23:59:59;ATMO SUD;FR93ZAG04;ZAG AVIGNON;FR03088;CARPENTRAS;Périurbaine;O3;Fond;Oui;mesures fixes;Moy. annuelle;64.0;63.67402656894178;µg-m3;;;;R;1;44.060347;5.067413;Carpentras;84031;Carpentras;41,0;30854;1363;813.7;72.4;18780;9.9;5.3;7.0;1.0
2022/01/01 00:00:00;2022/12/31 23:59:59;AIRPARIF;FR11ZAG01;ZAG PARIS;FR04004;PARIS 18eme;Urbaine;O3;Fond;Oui;mesures fixes;Moy. annuelle;50.0;50.06656990246169;µg-m3;;;;R;1;48.891666;2.346667;Paris;75118;;;;;;;;;;;
2022/01/01 00:00:00;2022/12/31 23:59:59;AIRPARIF;FR11ZAG01;ZAG PARIS;FR04017;NEUILLY-SUR-SEINE;Urbaine;O3;Fond;Oui;mesures fixes;Moy. annuelle;47.0;47.433165426445385;µg-m3;;;;R;1;48.88139;2.278056;Neuilly-sur-Seine;92051;Neuilly-sur-Seine;78.4;59200;4885;15871.3;76.4;48010;6.9;1,0;9.0;0.0
2022/01/01 00:00:00;2022/12/31 23:59:59;AIRPARIF;FR11ZAG01;ZAG PARIS;FR04023;CERGY-PONTOISE;Urbaine;O3;Fond;Oui;mesures fixes;Moy. annuelle;54.0;53.92962962962968;µg-m3;;;;R;1;49.04639;2.043056;Cergy;95127;Cergy;38.7;69578;2029;5972.4;71.2;20270;8.2;6.5;10.0;0.0
2022/01/01 00:00:00;2022/12/31 23:59:59;AIRPARIF;FR11ZAG01;ZAG PARIS;FR04029;VERSAILLES;Périurbaine;O3;Fond;Oui;mesures fixes;Moy. annuelle;50.0;49.58525685325969;µg-m3;;;;R;1;48.799168;2.130556;Versailles;78646;Versailles;39.2;83918;3701;3203,0;76.1;33780;4.1;2.3;15.0;1.0
2022/01/01 00:00:00;2022/12/31 23:59:59;AIRPARIF;FR11ZAG01;ZAG PARIS;FR04034;VITRY-SUR-SEINE;Urbaine;O3;Fond;Oui;mesures fixes;Moy. annuelle;51.0;50.974485405279765;µg-m3;;;;R;1;48.775897;2.375788;Vitry-sur-Seine;94081;Vitry-sur-Seine;52,0;95282;2111;8164.7;72,0;19490;9.1;7.7;3.0;0.0
2022/01/01 00:00:00;2022/12/31 23:59:59;AIRPARIF;FR11ZAG01;ZAG PARIS;FR04037;PARIS 13eme;Urbaine;O3;Fond;Oui;mesures fixes;Moy. annuelle;49.0;49.24784921369098;µg-m3;;;;R;1;48.82861;2.360278;Paris;75113;;;;;;;;;;;
2022/01/01 00:00:00;2022/12/31 23:59:59;AIRPARIF;FR11ZRE01;ZR ILE-DE-FRANCE;FR04038;Zone Rurale SO;Rurale régionale;O3;Fond;Oui;mesures fixes;Moy. annuelle;62.0;62.20814553990605;µg-m3;;;;R;1;48.581944;1.883333;Sonchamp;78601;Sonchamp;25.3;1664;39;35.8;79.2;30050;1.6;5.8;0.0;0.0
2022/01/01 00:00:00;2022/12/31 23:59:59;AIRPARIF;FR11ZRE01;ZR ILE-DE-FRANCE;FR04048;Zone Rurale Nord;Rurale régionale;O3;Fond;Oui;mesures fixes;Moy. annuelle;59.0;59.15997252118152;µg-m3;;;;R;1;49.100277;2.343889;;nan;;;;;;;;;;;
2022/01/01 00:00:00;2022/12/31 23:59:59;AIRPARIF;FR11ZAG01;ZAG PARIS;FR04049;LES ULIS;Périurbaine;O3;Fond;Oui;mesures fixes;Moy. annuelle;58.0;57.98939186099679;µg-m3;;;;R;1;48.679443;2.165556;Les Ulis;91692;Les Ulis;59.5;25633;761;4948.5;73.5;19950;18.4;9.9;6.0;0.0
2022/01/01 00:00:00;2022/12/31 23:59:59;AIRPARIF;FR11ZAG01;ZAG PARIS;FR04055;PARIS 1er Les Halles;Urbaine;O3;Fond;Oui;mesures fixes;Moy. annuelle;50.0;49.74853566096255;µg-m3;;;;R;1;48.86212;2.344616;Paris;75101;;;;;;;;;;;
2022/01/01 00:00:00;2022/12/31 23:59:59;AIRPARIF;FR11ZAG01;ZAG PARIS;FR04063;MANTES-LA-JOLIE;Périurbaine;O3;Fond;Oui;mesures fixes;Moy. annuelle;48.0;47.83496764917325;µg-m3;;;;N;-1;48.9964;1.7033;Mantes-la-Jolie;78361;Mantes-la-Jolie;42.8;44246;1120;4717.1;67.3;17310;3.8;2.1;1.0;0.0
2022/01/01 00:00:00;2022/12/31 23:59:59;AIRPARIF;FR11ZRE01;ZR ILE-DE-FRANCE;FR04066;Zone rurale Sud;Rurale régionale;O3;Fond;Oui;mesures fixes;Moy. annuelle;58.0;58.05160994614422;µg-m3;;;;R;1;48.364166;2.236944;;nan;;;;;;;;;;;
2022/01/01 00:00:00;2022/12/31 23:59:59;AIRPARIF;FR11ZAG01;ZAG PARIS;FR04069;MELUN;Périurbaine;O3;Fond;Oui;mesures fixes;Moy. annuelle;49.0;48.8131444496052;µg-m3;;;;R;1;48.54139;2.661389;Melun;77288;Melun;22.4;43685;1446;5433.5;74,0;19260;2,0;1.8;1.0;1.0
2022/01/01 00:00:00;2022/12/31 23:59:59;AIRPARIF;FR11ZAG01;ZAG PARIS;FR04098;LOGNES;Urbaine;O3;Fond;Oui;mesures fixes;Moy. annuelle;52.0;51.982586779699766;µg-m3;;;;R;1;48.84028;2.635278;Lognes;77258;Lognes;71.5;14678;461;4355.5;75.8;22290;8,0;5.6;1.0;0.0
2022/01/01 00:00:00;2022/12/31 23:59:59;AIRPARIF;FR11ZAG01;ZAG PARIS;FR04100;VILLEMOMBLE;Urbaine;O3;Fond;Oui;mesures fixes;Moy. annuelle;49.0;48.74306318681323;µg-m3;;;;R;1;48.881947;2.507222;Villemomble;93077;Villemomble;45.3;29973;823;7419.1;75.3;23920;2.5;12.7;2.0;0.0
2022/01/01 00:00:00;2022/12/31 23:59:59;AIRPARIF;FR11ZAG01;ZAG PARIS;FR04101;CHAMPIGNY-SUR-MARNE;Urbaine;O3;Fond;Oui;mesures fixes;Moy. annuelle;43.0;43.36696552790224;µg-m3;;;;N;-1;48.816387;2.5175;Champigny-sur-Marne;94017;Champigny-sur-Marne;37.4;78367;1935;6935.1;73.9;21260;9.1;16.5;2.0;1.0
2022/01/01 00:00:00;2022/12/31 23:59:59;AIRPARIF;FR11ZRE01;ZR ILE-DE-FRANCE;FR04142;Zone Rurale Nord-Est;Rurale régionale;O3;Fond;Oui;mesures fixes;Moy. annuelle;59.0;58.95040018294083;µg-m3;;;;R;1;49.028057;2.750278;Montgé-en-Goële;77308;Montgé-en-Goële;35.1;724;15;62.6;79.3;28440;2.7;24.3;0.0;0.0
2022/01/01 00:00:00;2022/12/31 23:59:59;AIRPARIF;FR11ZAG01;ZAG PARIS;FR04149;MONTGERON;Urbaine;O3;Fond;Oui;mesures fixes;Moy. annuelle;50.0;50.17278966029964;µg-m3;;;;R;1;48.7067;2.4572;Montgeron;91421;Montgeron;35.1;23890;559;2129.2;75.4;25500;11.6;7.5;0.0;0.0
2022/01/01 00:00:00;2022/12/31 23:59:59;AIRPARIF;FR11ZRE01;ZR ILE-DE-FRANCE;FR04158;Zone Rurale NO;Rurale régionale;O3;Fond;Oui;mesures fixes;Moy. annuelle;61.0;60.60446675900271;µg-m3;;;;R;1;49.063087;1.866381;Frémainville;95253;Frémainville;40,0;502;8;89.5;79.9;31060;0,0;20,0;0.0;0.0
2022/01/01 00:00:00;2022/12/31 23:59:59;AIRPARIF;FR11ZRE01;ZR ILE-DE-FRANCE;FR04181;RAMBOUILLET;Périurbaine;O3;Fond;Oui;mesures fixes;Moy. annuelle;57.0;56.93431350114405;µg-m3;;;;R;1;48.63373;1.830529;Rambouillet;78517;Rambouillet;43.1;27145;919;771.4;77.2;27990;11.3;3.6;6.0;1.0
2022/01/01 00:00:00;2022/12/31 23:59:59;AIRPARIF;FR11ZAG01;ZAG PARIS;FR04319;TREMBLAY-EN-FRANCE;Périurbaine;O3;Fond;Oui;mesures fixes;Moy. annuelle;45.0;44.64295147861034;µg-m3;;;;N;-1;48.95555;2.575278;Tremblay-en-France;93073;Tremblay-en-France;89,0;38210;1756;1702.8;74.8;21420;2,0;2.8;7.0;0.0
2022/01/01 00:00:00;2022/12/31 23:59:59;AIRPARIF;FR11ZRE01;ZR ILE-DE-FRANCE;FR04324;Zone Rurale Est;Rurale régionale;O3;Fond;Oui;mesures fixes;Moy. annuelle;53.0;52.83371095090973;µg-m3;;;;R;1;48.761665;3.058333;Beautheil-Saints;77433;Beautheil-Saints;33.6;2064;46;53.7;77.8;26270;5.7;15.6;0.0;0.0
2022/01/01 00:00:00;2022/12/31 23:59:59;AIRPARIF;FR11ZRE01;ZR ILE-DE-FRANCE;FR04328;Zone Rurale SE;Rurale régionale;O3;Fond;Oui;mesures fixes;Moy. annuelle;57.0;56.99833715596329;µg-m3;;;;R;1;48.3547;2.6453;Recloses;77386;Recloses;20.7;624;15;66.7;77.8;30980;24.1;10.3;0.0;0.0
2022/01/01 00:00:00;2022/12/31 23:59:59;ATMO NORMANDIE;FR28ZAR01;ZAR LE-HAVRE;FR05010;St Romain de Colbosc;Périurbaine;O3;Fond;Oui;mesures fixes;Moy. annuelle;59.0;59.02901881400325;µg-m3;;;;R;1;49.528927;0.358733;Saint-Romain-de-Colbosc;76647;Saint-Romain-de-Colbosc;60.6;4608;206;392.5;80.7;24950;13.4;7,0;0.0;0.0
2022/01/01 00:00:00;2022/12/31 23:59:59;ATMO NORMANDIE;FR28ZRE02;ZR NORMANDIE;FR05040;Honfleur Sce Tech.;Urbaine;O3;Fond;Oui;mesures fixes;Moy. annuelle;56.0;55.65958627065753;µg-m3;;;;R;1;49.415108;0.2437;Honfleur;14333;Honfleur;57.8;6751;599;493.9;74.9;20840;20.8;1.9;19.0;1.0
2022/01/01 00:00:00;2022/12/31 23:59:59;ATMO NORMANDIE;FR28ZAR01;ZAR LE-HAVRE;FR05074;Le Havre Ec. Herriot;Urbaine;O3;Fond;Oui;mesures fixes;Moy. annuelle;60.0;60.111209097238245;µg-m3;;;;R;1;49.48963;0.100703;Le Havre;76351;Le Havre;50.4;166462;4789;3545.5;70.7;20180;8.8;4.3;25.0;0.0
2022/01/01 00:00:00;2022/12/31 23:59:59;ATMO NORMANDIE;FR28ZRE02;ZR NORMANDIE;FR05082;Touques;Périurbaine;O3;Fond;Oui;mesures fixes;Moy. annuelle;60.0;59.51125893077117;µg-m3;;;;R;1;49.348;0.109253;Touques;14699;Touques;73.5;3857;161;474.4;79.4;21760;4.7;10.1;3.0;1.0
2022/01/01 00:00:00;2022/12/31 23:59:59;ATMO NORMANDIE;FR28ZRE02;ZR NORMANDIE;FR05087;Maison Parc Brotonne;Rurale régionale;O3;Fond;Oui;mesures fixes;Moy. annuelle;54.0;54.137158533738;µg-m3;;;;R;1;49.498417;0.758697;Notre-Dame-de-Bliquetuit;76473;Notre-Dame-de-Bliquetuit;0,0;824;13;84.3;81.2;24160;9.7;37.1;0.0;0.0
2022/01/01 00:00:00;2022/12/31 23:59:59;ATMO NORMANDIE;FR28ZRE02;ZR NORMANDIE;FR05088;Fécamp;Périurbaine;O3;Fond;Oui;mesures fixes;Moy. annuelle;54.0;53.8851416480546;µg-m3;;;;R;1;49.749942;0.415019;Fécamp;76259;Fécamp;33.4;17961;573;1191.8;68.5;19850;4.5;1.6;9.0;1.0
2022/01/01 00:00:00;2022/12/31 23:59:59;ATMO NORMANDIE;FR28ZAR01;ZAR LE-HAVRE;FR05090;Le Havre ville-haute;Urbaine;O3;Fond;Oui;mesures fixes;Moy. annuelle;62.0;61.55709006928408;µg-m3;;;;R;1;49.514686;0.100645;Le Havre;76351;Le Havre;50.4;166462;4789;3545.5;70.7;20180;8.8;4.3;25.0;0.0
2022/01/01 00:00:00;2022/12/31 23:59:59;ATMO HAUTS DE FRANCE;FR32ZAG01;ZAG BLDV;FR06001;Valenciennes Acacias;Urbaine;O3;Fond;Oui;mesures fixes;Moy. annuelle;49.0;49.293628873157736;µg-m3;;;;R;1;50.35853;3.50804;Valenciennes;59606;Valenciennes;34.8;42979;1854;3109.9;68.4;20250;4.8;1.1;11.0;0.0
2022/01/01 00:00:00;2022/12/31 23:59:59;ATMO HAUTS DE FRANCE;FR32ZAG01;ZAG BLDV;FR06003;Douai Theuriet;Urbaine;O3;Fond;Oui;mesures fixes;Moy. annuelle;49.0;49.3639806079664;µg-m3;;;;N;-1;50.37822;3.06586;Douai;59178;Douai;37.8;39833;1436;2359.8;66.8;18440;9.9;3.6;4.0;0.0
2022/01/01 00:00:00;2022/12/31 23:59:59;ATMO HAUTS DE FRANCE;FR32ZRE01;ZR HAUTS-DE-FRANCE;FR06007;Maubeuge Joyeuse;Urbaine;O3;Fond;Oui;mesures fixes;Moy. annuelle;58.0;57.76896875419072;µg-m3;;;;R;1;50.27936;3.97691;Maubeuge;59392;Maubeuge;24.2;28879;816;1532,0;63.6;16320;18.5;3,0;4.0;0.0
2022/01/01 00:00:00;2022/12/31 23:59:59;ATMO HAUTS DE FRANCE;FR32ZAG01;ZAG BLDV;FR06011;Denain Villars;Périurbaine;O3;Fond;Oui;mesures fixes;Moy. annuelle;57.0;56.69379232505649;µg-m3;;;;R;1;50.32276;3.39593;Denain;59172;Denain;29.4;20622;476;1790.1;62.9;14890;6.6;6,0;0.0;0.0
2022/01/01 00:00:00;2022/12/31 23:59:59;ATMO HAUTS DE FRANCE;FR32ZRE01;ZR HAUTS-DE-FRANCE;FR06133;Cartignies;Rurale près des villes;O3;Fond;Oui;mesures fixes;Moy. annuelle;55.0;55.00976976489219;µg-m3;;;;R;1;50.09225;3.85003;Cartignies;59134;Cartignies;30.1;1234;29;46.7;77.4;21380;9.7;7.8;0.0;0.0
2022/01/01 00:00:00;2022/12/31 23:59:59;ATMO HAUTS DE FRANCE;FR32ZAG01;ZAG BLDV;FR06134;Saint Amand;Périurbaine;O3;Fond;Oui;mesures fixes;Moy. annuelle;48.0;47.65332537313432;µg-m3;;;;R;1;50.45647;3.42794;Saint-Amand-les-Eaux;59526;Saint-Amand-les-Eaux;33.3;16042;527;474.5;73.8;20980;30.4;3.2;3.0;1.0
2022/01/01 00:00:00;2022/12/31 23:59:59;ATMO AUVERGNE-RHÔNE-ALPES;FR84ZAG04;ZAG CLERMONT-FERRAND;FR07004;Montferrand;Urbaine;O3;Fond;Oui;mesures indicatives;Moy. annuelle;54.0;53.87752276867031;µg-m3;;;;R;1;45.79728;3.113833;Clermont-Ferrand;63113;Clermont-Ferrand;42.7;147751;5943;3462.6;67.8;20430;12.7;3,0;38.0;0.0
2022/01/01 00:00:00;2022/12/31 23:59:59;ATMO AUVERGNE-RHÔNE-ALPES;FR84ZAG04;ZAG CLERMONT-FERRAND;FR07009;Jardin Lecoq;Urbaine;O3;Fond;Oui;mesures indicatives;Moy. annuelle;52.0;51.74425702811246;µg-m3;;;;R;1;45.772167;3.0875;Clermont-Ferrand;63113;Clermont-Ferrand;42.7;147751;5943;3462.6;67.8;20430;12.7;3,0;38.0;0.0
2022/01/01 00:00:00;2022/12/31 23:59:59;ATMO AUVERGNE-RHÔNE-ALPES;FR84ZRE02;ZR AUVERGNE-RHONE-ALPES;FR07022;Paray le Fresil;Rurale régionale;O3;Fond;Oui;mesures fixes;Moy. annuelle;51.0;50.62246096043212;µg-m3;;;;R;1;46.652668;3.600667;Paray-le-Frésil;3203;Paray-le-Frésil;12.5;379;10;10.2;79.1;20240;0,0;0,0;0.0;0.0
2022/01/01 00:00:00;2022/12/31 23:59:59;ATMO AUVERGNE-RHÔNE-ALPES;FR84ZRE02;ZR AUVERGNE-RHONE-ALPES;FR07031;Rageade;Rurale régionale;O3;Fond;Oui;mesures indicatives;Moy. annuelle;81.0;80.77918034780492;µg-m3;;;;R;1;45.10472;3.277361;Rageade;15158;Rageade;0,0;99;5;7.9;80,0;N/A - secret statistique;0,0;0,0;0.0;0.0
2022/01/01 00:00:00;2022/12/31 23:59:59;ATMO AUVERGNE-RHÔNE-ALPES;FR84ZRE02;ZR AUVERGNE-RHONE-ALPES;FR07052;Aurillac-Lagarde;Urbaine;O3;Fond;Oui;mesures indicatives;Moy. annuelle;64.0;64.05578790995325;µg-m3;;;;R;1;44.92008;2.441082;Aurillac;15014;Aurillac;39.6;26189;1588;910.6;71.4;21860;9.2;4.7;12.0;1.0
2022/01/01 00:00:00;2022/12/31 23:59:59;ATMO AUVERGNE-RHÔNE-ALPES;FR84ZRE02;ZR AUVERGNE-RHONE-ALPES;FR07054;Le Puy-Causans;Urbaine;O3;Fond;Oui;mesures indicatives;Moy. annuelle;58.0;57.61237415125253;µg-m3;;;;R;1;45.039001;3.887001;Le Puy-en-Velay;43157;Le Puy-en-Velay;29,0;18989;1214;1131,0;72.5;20480;3.1;2.7;11.0;0.0
2022/01/01 00:00:00;2022/12/31 23:59:59;ATMO AUVERGNE-RHÔNE-ALPES;FR84ZRE02;ZR AUVERGNE-RHONE-ALPES;FR07056;Pays du Mezenc;Rurale régionale;O3;Fond;Oui;mesures fixes;Moy. annuelle;81.0;80.76260162601633;µg-m3;;;;R;1;44.98377;4.226006;Fay-sur-Lignon;43092;Fay-sur-Lignon;51.6;344;22;26,0;78.7;20110;9.4;7.8;1.0;1.0
2022/01/01 00:00:00;2022/12/31 23:59:59;ATMO AUVERGNE-RHÔNE-ALPES;FR84ZRE02;ZR AUVERGNE-RHONE-ALPES;FR07057;Moulins Centre;Urbaine;O3;Fond;Oui;mesures fixes;Moy. annuelle;54.0;54.10448295782791;µg-m3;;;;R;1;46.5619722;3.34063888888888;Yzeure;3321;Yzeure;35.2;12670;384;293,0;70.8;23540;9.7;7.2;1.0;0.0
2022/01/01 00:00:00;2022/12/31 23:59:59;ATMO AUVERGNE-RHÔNE-ALPES;FR84ZRE02;ZR AUVERGNE-RHONE-ALPES;FR07058;Montluçon;Urbaine;O3;Fond;Oui;mesures indicatives;Moy. annuelle;49.0;48.61806650668504;µg-m3;;;;R;1;46.340723;2.593945;Montluçon;3185;Montluçon;39.4;33317;1308;1611.9;71.9;19420;13.2;4.1;11.0;0.0
2022/01/01 00:00:00;2022/12/31 23:59:59;ATMO AUVERGNE-RHÔNE-ALPES;FR84ZRE02;ZR AUVERGNE-RHONE-ALPES;FR07059;Vichy;Urbaine;O3;Fond;Oui;mesures indicatives;Moy. annuelle;52.0;51.568973110802034;µg-m3;;;;R;1;46.130431;3.425694;Vichy;3310;Vichy;44.4;25702;1256;4393.5;67.9;20190;2.1;1,0;25.0;0.0
2022/01/01 00:00:00;2022/12/31 23:59:59;ATMO AUVERGNE-RHÔNE-ALPES;FR84ZAG04;ZAG CLERMONT-FERRAND;FR07060;Royat Périurbaine;Périurbaine;O3;Fond;Oui;mesures fixes;Moy. annuelle;64.0;63.7350948196112;µg-m3;;;;R;1;45.764111;3.046111;Royat;63308;Royat;60.6;4420;107;667.7;73.4;27950;0.9;0.8;4.0;1.0
2022/01/01 00:00:00;2022/12/31 23:59:59;ATMO AUVERGNE-RHÔNE-ALPES;FR84ZAG04;ZAG CLERMONT-FERRAND;FR07061;Riom Périurbaine;Périurbaine;O3;Fond;Oui;mesures indicatives;Moy. annuelle;48.0;47.503405286852;µg-m3;;;;R;1;45.89674;3.122254;Riom;63300;Riom;31.5;18680;730;584.3;72.8;23090;23.9;5.6;8.0;0.0
2022/01/01 00:00:00;2022/12/31 23:59:59;ATMO OCCITANIE;FR76ZAG02;ZAG MONTPELLIER;FR08016;Montpellier Prés d'Arènes;Urbaine;O3;Fond;Oui;mesures fixes;Moy. annuelle;55.0;55.17689060851216;µg-m3;;;;R;1;43.5915;3.88681;Montpellier;34172;Montpellier;46.8;307101;12224;5399.1;67.1;19670;3.9;3,0;57.0;0.0
2022/01/01 00:00:00;2022/12/31 23:59:59;ATMO OCCITANIE;FR76ZAG02;ZAG MONTPELLIER;FR08017;Montpellier Périurbaine Sud (Lattes);Périurbaine;O3;Fond;Oui;mesures indicatives;Moy. annuelle;63.0;63.27293561724751;µg-m3;;;;R;1;43.5705;3.9118;Lattes;34129;Lattes;76,0;17592;1054;632.1;79.1;26460;4,0;6.7;7.0;6.0
2022/01/01 00:00:00;2022/12/31 23:59:59;ATMO OCCITANIE;FR76ZAG02;ZAG MONTPELLIER;FR08018;Montpellier St Gely;Périurbaine;O3;Fond;Oui;mesures fixes;Moy. annuelle;67.0;67.44010887190167;µg-m3;;;;R;1;43.6926;3.80021;Saint-Gély-du-Fesc;34255;Saint-Gély-du-Fesc;51.8;10530;351;637.8;75.6;29940;12.4;3.6;0.0;0.0
2022/01/01 00:00:00;2022/12/31 23:59:59;ATMO OCCITANIE;FR76ZRE01;ZR OCCITANIE;FR08022;Agathois-piscénois;Périurbaine;O3;Fond;Oui;mesures fixes;Moy. annuelle;67.0;67.48597637885578;µg-m3;;;;R;1;43.2875;3.50484;Agde;34003;Agde;54.9;29612;1731;582.8;68.7;20410;3.7;5.1;29.0;24.0
2022/01/01 00:00:00;2022/12/31 23:59:59;ATMO OCCITANIE;FR76ZRE01;ZR OCCITANIE;FR08023;Biterrois-Narbonnais;Rurale régionale;O3;Fond;Oui;mesures fixes;Moy. annuelle;68.0;67.71366619784344;µg-m3;;;;R;1;43.4068;3.18878;Corneilhan;34084;Corneilhan;17.4;1632;38;114.7;74,0;22500;4.3;18.6;0.0;0.0
2022/01/01 00:00:00;2022/12/31 23:59:59;ATMO OCCITANIE;FR76ZRE01;ZR OCCITANIE;FR08209;Gard Rhodanien2;Rurale près des villes;O3;Fond;Oui;mesures fixes;Moy. annuelle;64.0;64.47826490373451;µg-m3;;;;R;1;43.9426;4.67958;Saze;30315;Saze;41.6;2097;44;166.4;80,0;24560;4.1;31,0;0.0;0.0
2022/01/01 00:00:00;2022/12/31 23:59:59;ATMO OCCITANIE;FR76ZAR02;ZAR NIMES;FR08614;Nimes Gauzy;Urbaine;O3;Fond;Oui;mesures fixes;Moy. annuelle;60.0;60.46609795728868;µg-m3;;;;R;1;43.8344;4.3744;Nîmes;30189;Nîmes;42.6;150444;6472;929.5;66.4;18760;3.7;4.5;31.0;1.0
2022/01/01 00:00:00;2022/12/31 23:59:59;ATMO OCCITANIE;FR76ZAR02;ZAR NIMES;FR08617;Nimes La Calmette;Périurbaine;O3;Fond;Oui;mesures fixes;Moy. annuelle;56.0;55.9969360308736;µg-m3;;;;R;1;43.9254;4.26581;La Calmette;30061;La Calmette;58.6;2572;98;231.7;76.1;21630;8.5;5.3;0.0;0.0
2022/01/01 00:00:00;2022/12/31 23:59:59;ATMO OCCITANIE;FR76ZAR01;ZAR PERPIGNAN;FR08712;Perpignan St Esteve;Périurbaine;O3;Fond;Oui;mesures fixes;Moy. annuelle;67.0;66.7531121281465;µg-m3;;;;R;1;42.7198;2.83988;Saint-Estève;66172;Saint-Estève;45.2;11673;407;1000.3;74.4;22170;4.4;15.1;0.0;0.0
2022/01/01 00:00:00;2022/12/31 23:59:59;ATMO OCCITANIE;FR76ZAR01;ZAR PERPIGNAN;FR08714;Perpignan Les Carmes;Urbaine;O3;Fond;Oui;mesures fixes;Moy. annuelle;61.0;61.08828442176076;µg-m3;;;;R;1;42.6955;2.90053;Perpignan;66136;Perpignan;50,0;120996;5714;1777.5;62.9;17380;5,0;3.9;32.0;1.0
2022/01/01 00:00:00;2022/12/31 23:59:59;ATMO NOUVELLE-AQUITAINE;FR75ZRE02;ZR NOUVELLE-AQUITAINE;FR09003;place de VERDUN;Urbaine;O3;Fond;Oui;mesures fixes;Moy. annuelle;57.0;57.321926444833565;µg-m3;;;;R;1;46.162647;-1.153684;La Rochelle;17300;La Rochelle;40.4;79961;3854;2812.6;69.3;22200;8.8;1.8;42.0;1.0
2022/01/01 00:00:00;2022/12/31 23:59:59;ATMO NOUVELLE-AQUITAINE;FR75ZRE02;ZR NOUVELLE-AQUITAINE;FR09008;Aytré;Périurbaine;O3;Fond;Oui;mesures fixes;Moy. annuelle;60.0;59.50691085003455;µg-m3;;;;R;1;46.135134;-1.117086;Aytré;17028;Aytré;42.8;9759;536;798.6;78.4;22830;27.9;11.8;3.0;1.0
2022/01/01 00:00:00;2022/12/31 23:59:59;ATMO NOUVELLE-AQUITAINE;FR75ZRE02;ZR NOUVELLE-AQUITAINE;FR09015;Les Couronneries;Urbaine;O3;Fond;Oui;mesures fixes;Moy. annuelle;58.0;58.13418834296723;µg-m3;;;;R;1;46.586958;0.358458;Poitiers;86194;Poitiers;33.4;89472;3207;2124.7;62.7;20150;4.8;2.5;23.0;0.0
2022/01/01 00:00:00;2022/12/31 23:59:59;ATMO NOUVELLE-AQUITAINE;FR75ZRE02;ZR NOUVELLE-AQUITAINE;FR09103;Square Pablo Casals;Urbaine;O3;Fond;Oui;mesures fixes;Moy. annuelle;53.0;53.06249562273846;µg-m3;;;;R;1;45.647428;0.167162;Angoulême;16015;Angoulême;36.8;41423;1871;1895.8;72.6;19830;9.1;2.8;12.0;0.0
2022/01/01 00:00:00;2022/12/31 23:59:59;ATMO NOUVELLE-AQUITAINE;FR75ZRE02;ZR NOUVELLE-AQUITAINE;FR09302;Zoodyssée Chizé;Rurale régionale;O3;Fond;Oui;mesures fixes;Moy. annuelle;58.0;58.24894823918699;µg-m3;;;;R;1;46.143234;-0.395913;Villiers-en-Bois;79350;Villiers-en-Bois;82.4;124;6;6.7;80,0;23150;3.7;0,0;0.0;0.0
2022/01/01 00:00:00;2022/12/31 23:59:59;ATMO NOUVELLE-AQUITAINE;FR75ZRE02;ZR NOUVELLE-AQUITAINE;FR09303;Niort Venise;Urbaine;O3;Fond;Oui;mesures fixes;Moy. annuelle;59.0;59.37772812793992;µg-m3;;;;R;1;46.320028;-0.482861;Niort;79191;Niort;56.3;60074;2412;880.9;76.6;23120;5.3;2.8;19.0;0.0
2022/01/01 00:00:00;2022/12/31 23:59:59;ATMO NOUVELLE-AQUITAINE;FR75ZRE02;ZR NOUVELLE-AQUITAINE;FR09304;AIRVAULT - Stade Laillé;Périurbaine;O3;Fond;Oui;mesures fixes;Moy. annuelle;61.0;60.57005523563296;µg-m3;;;;R;1;46.823796;-0.135634;Airvault;79005;Airvault;33.1;3295;126;51.6;75.8;21280;40.2;3.9;1.0;2.0
2022/01/01 00:00:00;2022/12/31 23:59:59;ATMO NOUVELLE-AQUITAINE;FR75ZRE02;ZR NOUVELLE-AQUITAINE;FR09404;Poitiers Centre  Augouard;Urbaine;O3;Fond;Oui;mesures fixes;Moy. annuelle;50.0;50.368693044180446;µg-m3;;;;R;1;46.583998;0.345582;Poitiers;86194;Poitiers;33.4;89472;3207;2124.7;62.7;20150;4.8;2.5;23.0;0.0
2022/01/01 00:00:00;2022/12/31 23:59:59;ATMO HAUTS DE FRANCE;FR32ZAR01;ZAR COTE-D-OPALE;FR10017;St Pol mer - cheminots;Urbaine;O3;Fond;Oui;mesures fixes;Moy. annuelle;55.0;54.56162034299223;µg-m3;;;;R;1;51.032761;2.332358;Dunkerque;59183;Dunkerque;38.3;87013;2666;1982.5;71.2;20240;12.5;6.5;13.0;1.0
2022/01/01 00:00:00;2022/12/31 23:59:59;ATMO HAUTS DE FRANCE;FR32ZAR01;ZAR COTE-D-OPALE;FR10025;Sangatte;Périurbaine;O3;Fond;Oui;mesures fixes;Moy. annuelle;51.0;51.39657192720016;µg-m3;;;;R;1;50.94989;1.76917;Sangatte;62774;Sangatte;25.9;4755;82;333,0;74.1;23630;7,0;7.2;2.0;2.0
2022/01/01 00:00:00;2022/12/31 23:59:59;ATMO HAUTS DE FRANCE;FR32ZAR01;ZAR COTE-D-OPALE;FR10026;Calais Parmentier;Urbaine;O3;Fond;Oui;mesures fixes;Moy. annuelle;55.0;54.58805046706296;µg-m3;;;;R;1;50.9578;1.89008;Calais;62193;Calais;40.5;67585;1742;2017.5;67.7;18090;10.3;3.4;15.0;1.0
2022/01/01 00:00:00;2022/12/31 23:59:59;ATMO HAUTS DE FRANCE;FR32ZAR01;ZAR COTE-D-OPALE;FR10029;Cappelle la Grande;Périurbaine;O3;Fond;Oui;mesures fixes;Moy. annuelle;54.0;53.72838184931455;µg-m3;;;;N;-1;50.99594;2.36627;Cappelle-la-Grande;59131;Cappelle-la-Grande;42.8;7865;122;1440.5;72.9;20700;12.8;14.9;0.0;0.0
2022/01/01 00:00:00;2022/12/31 23:59:59;ATMO HAUTS DE FRANCE;FR32ZAR01;ZAR COTE-D-OPALE;FR10032;Outreau;Périurbaine;O3;Fond;Oui;mesures fixes;Moy. annuelle;60.0;60.11224489795924;µg-m3;;;;R;1;50.69435;1.57657;Outreau;62643;Outreau;43.6;13398;256;1889.7;72.1;19380;14.5;9.3;0.0;0.0
2022/01/01 00:00:00;2022/12/31 23:59:59;ATMO HAUTS DE FRANCE;FR32ZAR01;ZAR COTE-D-OPALE;FR10041;St Omer Ribot;Urbaine;O3;Fond;Oui;mesures fixes;Moy. annuelle;48.0;47.974393002563566;µg-m3;;;;N;-1;50.74823;2.25978;Saint-Omer;62765;Saint-Omer;37.1;14358;678;875.5;70.7;18120;6.6;3.1;6.0;0.0
2022/01/01 00:00:00;2022/12/31 23:59:59;ATMO HAUTS DE FRANCE;FR32ZRE01;ZR HAUTS-DE-FRANCE;FR10132;Campagne les B.;Rurale régionale;O3;Fond;Oui;mesures fixes;Moy. annuelle;63.0;63.01771391247538;µg-m3;;;;R;1;50.61048;1.99145;Campagne-lès-Boulonnais;62202;Campagne-lès-Boulonnais;5,0;675;13;50.8;78.4;20260;4.1;2.5;0.0;0.0
2022/01/01 00:00:00;2022/12/31 23:59:59;ATMO HAUTS DE FRANCE;FR32ZAG02;ZAG LILLE;FR11016;Marcq CTM;Urbaine;O3;Fond;Oui;mesures fixes;Moy. annuelle;52.0;51.54306122448979;µg-m3;;;;R;1;50.67003;3.07656;Marcq-en-Barœul;59378;Marcq-en-Barœul;72.5;39943;1610;2844.9;77.6;29490;5.5;6,0;4.0;0.0
2022/01/01 00:00:00;2022/12/31 23:59:59;ATMO HAUTS DE FRANCE;FR32ZAG02;ZAG LILLE;FR11025;Lille Fives;Urbaine;O3;Fond;Oui;mesures fixes;Moy. annuelle;47.0;46.829113924050645;µg-m3;;;;N;-1;50.62805;3.09031;Lille;59350;Lille;42.4;238695;10649;6853.1;67.4;20520;2.3;1.5;58.0;0.0
2022/01/01 00:00:00;2022/12/31 23:59:59;ATMO HAUTS DE FRANCE;FR32ZAG02;ZAG LILLE;FR11026;Halluin stade;Périurbaine;O3;Fond;Oui;mesures fixes;Moy. annuelle;48.0;48.44754982414997;µg-m3;;;;R;1;50.775482;3.12568;Halluin;59279;Halluin;48.5;20684;376;1646.8;76.2;21590;19.4;4,0;2.0;0.0
2022/01/01 00:00:00;2022/12/31 23:59:59;ATMO HAUTS DE FRANCE;FR32ZAG02;ZAG LILLE;FR11114;Wattignies;Périurbaine;O3;Fond;Oui;mesures fixes;Moy. annuelle;52.0;51.86667927382747;µg-m3;;;;R;1;50.59774;3.04946;Wattignies;59648;Wattignies;53.4;15756;234;2497,0;74.7;21990;3.4;1.8;1.0;0.0
2022/01/01 00:00:00;2022/12/31 23:59:59;ATMO OCCITANIE;FR76ZAG01;ZAG TOULOUSE;FR12004;ECOLE M.JACQUIER;Urbaine;O3;Fond;Oui;mesures fixes;Moy. annuelle;58.0;57.88555085230526;µg-m3;;;;R;1;43.575694;1.418064;Toulouse;31555;Toulouse;46.5;511684;19723;4325.3;71.8;22140;12.8;3.9;91.0;2.0
2022/01/01 00:00:00;2022/12/31 23:59:59;ATMO OCCITANIE;FR76ZRE01;ZR OCCITANIE;FR12020;PEYRUSSE;Rurale nationale;O3;Fond;Oui;mesures fixes;Moy. annuelle;67.0;67.02688172043014;µg-m3;;;;R;1;43.6287;0.179069;Peyrusse-Vieille;32317;Peyrusse-Vieille;0,0;64;2;5.8;75.6;N/A - secret statistique;0,0;0,0;0.0;0.0
2022/01/01 00:00:00;2022/12/31 23:59:59;ATMO OCCITANIE;FR76ZRE01;ZR OCCITANIE;FR12029;GAUDONVILLE;Rurale régionale;O3;Fond;Oui;mesures fixes;Moy. annuelle;66.0;66.20842863677952;µg-m3;;;;R;1;43.883933;0.845617;Gaudonville;32139;Gaudonville;22.2;106;4;14.3;71.2;N/A - secret statistique;0,0;33.3;0.0;1.0
2022/01/01 00:00:00;2022/12/31 23:59:59;ATMO OCCITANIE;FR76ZAG01;ZAG TOULOUSE;FR12030;Toulouse Berthelot;Urbaine;O3;Fond;Oui;mesures fixes;Moy. annuelle;59.0;58.7547918572736;µg-m3;;;;R;1;43.587344;1.444003;Toulouse;31555;Toulouse;46.5;511684;19723;4325.3;71.8;22140;12.8;3.9;91.0;2.0
2022/01/01 00:00:00;2022/12/31 23:59:59;ATMO OCCITANIE;FR76ZRE01;ZR OCCITANIE;FR12031;BELESTA EN LAURAGAIS;Rurale régionale;O3;Fond;Oui;mesures fixes;Moy. annuelle;67.0;67.032979337412;µg-m3;;;;R;1;43.44139;1.821944;Bélesta-en-Lauragais;31060;Bélesta-en-Lauragais;0,0;112;4;20,0;81.5;22770;85.2;0,0;0.0;0.0
2022/01/01 00:00:00;2022/12/31 23:59:59;ATMO OCCITANIE;FR76ZAG01;ZAG TOULOUSE;FR12041;SICOVAL;Périurbaine;O3;Fond;Oui;mesures fixes;Moy. annuelle;65.0;65.155919395466;µg-m3;;;;R;1;43.457306;1.571469;Montgiscard;31381;Montgiscard;73.5;2586;67;196.5;82.4;27200;3.8;4,0;0.0;0.0
2022/01/01 00:00:00;2022/12/31 23:59:59;ATMO OCCITANIE;FR76ZRE01;ZR OCCITANIE;FR12042;LOURDES LAPACCA;Urbaine;O3;Fond;Oui;mesures fixes;Moy. annuelle;57.0;57.03688121641703;µg-m3;;;;R;1;43.096247;-0.040497;Lourdes;65286;Lourdes;51.1;13266;903;359.1;68.9;18810;9.5;4.6;133.0;8.0
2022/01/01 00:00:00;2022/12/31 23:59:59;ATMO OCCITANIE;FR76ZRE01;ZR OCCITANIE;FR12052;Tarbes lycée Dupuy;Urbaine;O3;Fond;Oui;mesures fixes;Moy. annuelle;53.0;53.32721872401097;µg-m3;;;;R;1;43.230297;0.062339;Tarbes;65440;Tarbes;36.2;44529;1907;2904.7;64.8;19070;5,0;3.2;13.0;0.0
2022/01/01 00:00:00;2022/12/31 23:59:59;ATMO OCCITANIE;FR76ZRE01;ZR OCCITANIE;FR12053;Stade Travet CASTRES;Urbaine;O3;Fond;Oui;mesures fixes;Moy. annuelle;60.0;60.42521105585776;µg-m3;;;;R;1;43.610497;2.23015;Castres;81065;Castres;45.2;42700;1639;435,0;72,0;20940;11.8;4.6;11.0;1.0
2022/01/01 00:00:00;2022/12/31 23:59:59;ATMO OCCITANIE;FR76ZRE01;ZR OCCITANIE;FR12095;Rodez;Urbaine;O3;Fond;Oui;mesures fixes;Moy. annuelle;63.0;63.012681912681934;µg-m3;;;;R;1;44.35699225;2.57070422;Rodez;12202;Rodez;40.8;24136;1503;2158.9;72.1;22210;5.1;3.1;16.0;1.0
2022/01/01 00:00:00;2022/12/31 23:59:59;ATMO GRAND EST;FR44ZRE01;ZR GRAND-EST;FR14008;REVIN;Rurale nationale;O3;Fond;Oui;mesures fixes;Moy. annuelle;63.0;62.7446119682096;µg-m3;;;;R;1;49.90778;4.63;;nan;;;;;;;;;;;
2022/01/01 00:00:00;2022/12/31 23:59:59;ATMO GRAND EST;FR44ZAR01;ZAR REIMS;FR14010;BETHENY;Périurbaine;O3;Fond;Oui;mesures fixes;Moy. annuelle;54.0;54.45376502330141;µg-m3;;;;R;1;49.28222;4.051111;Bétheny;51055;Bétheny;53.9;7030;228;353.3;77.5;24450;9.1;20.9;1.0;0.0
2022/01/01 00:00:00;2022/12/31 23:59:59;ATMO GRAND EST;FR44ZAR01;ZAR REIMS;FR14012;Jean d Aulan;Urbaine;O3;Fond;Oui;mesures fixes;Moy. annuelle;52.0;51.97590137241214;µg-m3;;;;R;1;49.224167;4.020556;Reims;51454;Reims;42.7;178478;5730;3805.5;69.7;20210;8.7;4.2;42.0;0.0
2022/01/01 00:00:00;2022/12/31 23:59:59;ATMO GRAND EST;FR44ZRE01;ZR GRAND-EST;FR14022;CHALONS;Urbaine;O3;Fond;Oui;mesures fixes;Moy. annuelle;53.0;52.95757575757565;µg-m3;;;;R;1;48.962223;4.36;Châlons-en-Champagne;51108;Châlons-en-Champagne;30.8;43218;1319;1659,0;72.5;20320;5.6;1.9;10.0;1.0
2022/01/01 00:00:00;2022/12/31 23:59:59;ATMO GRAND EST;FR44ZRE01;ZR GRAND-EST;FR14029;Capitainerie;Périurbaine;O3;Fond;Oui;mesures fixes;Moy. annuelle;56.0;56.18985456251469;µg-m3;;;;R;1;48.7266;4.594781;Vitry-le-François;51649;Vitry-le-François;34.4;11349;455;1759.5;66.8;17890;16.2;6.2;4.0;1.0
2022/01/01 00:00:00;2022/12/31 23:59:59;ATMO GRAND EST;FR44ZRE01;ZR GRAND-EST;FR14032;ST PARRES AUX TERTRE;Périurbaine;O3;Fond;Oui;mesures fixes;Moy. annuelle;54.0;53.72403630790993;µg-m3;;;;R;1;48.299168;4.117222;Saint-Parres-aux-Tertres;10357;Saint-Parres-aux-Tertres;73.5;3214;178;271.9;76.5;23550;0.9;1.2;2.0;0.0
2022/01/01 00:00:00;2022/12/31 23:59:59;ATMO GRAND EST;FR44ZRE01;ZR GRAND-EST;FR14033;STE SAVINE;Urbaine;O3;Fond;Oui;mesures fixes;Moy. annuelle;50.0;50.06263406758156;µg-m3;;;;R;1;48.295002;4.050278;Sainte-Savine;10362;Sainte-Savine;46.6;10457;321;1385,0;75,0;21590;25.5;5.3;1.0;0.0
2022/01/01 00:00:00;2022/12/31 23:59:59;ATMO GRAND EST;FR44ZRE01;ZR GRAND-EST;FR14042;St DIZIER L. Michel;Urbaine;O3;Fond;Oui;mesures fixes;Moy. annuelle;57.0;56.64840151254731;µg-m3;;;;R;1;48.645836;4.966111;Saint-Dizier;52448;Saint-Dizier;35.7;22811;854;478.3;67.8;18720;19,0;3.2;7.0;0.0
2022/01/01 00:00:00;2022/12/31 23:59:59;ATMO GRAND EST;FR44ZRE01;ZR GRAND-EST;FR14051;CHARLEVILLE;Urbaine;O3;Fond;Oui;mesures fixes;Moy. annuelle;50.0;50.44118189148718;µg-m3;;;;R;1;49.745277;4.719167;Charleville-Mézières;8105;Charleville-Mézières;34.6;45634;1735;1451.5;68.6;18380;8.2;1.7;11.0;1.0
2022/01/01 00:00:00;2022/12/31 23:59:59;ATMO AUVERGNE-RHÔNE-ALPES;FR84ZAG02;ZAG GRENOBLE;FR15013;Champ sur Drac;Périurbaine;O3;Fond;Oui;mesures indicatives;Moy. annuelle;50.0;49.53696377228298;µg-m3;;;;R;1;45.07954;5.728653;Champ-sur-Drac;38071;Champ-sur-Drac;19.6;3344;74;374.9;77.6;24940;62.8;8.2;0.0;0.0
2022/01/01 00:00:00;2022/12/31 23:59:59;ATMO AUVERGNE-RHÔNE-ALPES;FR84ZAG02;ZAG GRENOBLE;FR15018;Voiron Urbain;Urbaine;O3;Fond;Oui;mesures indicatives;Moy. annuelle;48.0;48.386499643790174;µg-m3;;;;R;1;45.360176;5.589419;Voiron;38563;Voiron;52.3;21604;1046;986.5;77.2;23110;9.2;3.4;4.0;0.0
2022/01/01 00:00:00;2022/12/31 23:59:59;ATMO AUVERGNE-RHÔNE-ALPES;FR93ZRE02;ZR PROVENCE-ALPES-COTE-D-AZUR;FR15031;Le Casset2;Rurale nationale;O3;Fond;Oui;mesures indicatives;Moy. annuelle;87.0;86.65793230485848;µg-m3;;;;R;1;44.997;6.4694;;nan;;;;;;;;;;;
2022/01/01 00:00:00;2022/12/31 23:59:59;ATMO AUVERGNE-RHÔNE-ALPES;FR84ZAG02;ZAG GRENOBLE;FR15038;St Martin d'Heres;Urbaine;O3;Fond;Oui;mesures indicatives;Moy. annuelle;42.0;41.5110601247205;µg-m3;;;;R;1;45.1828;5.7531;Saint-Martin-d'Hères;38421;Saint-Martin-d'Hères;28.3;38022;1005;4106,0;63.6;21160;2.7;4.8;1.0;0.0
2022/01/01 00:00:00;2022/12/31 23:59:59;ATMO AUVERGNE-RHÔNE-ALPES;FR84ZAG02;ZAG GRENOBLE;FR15043;Grenoble Les Frenes;Urbaine;O3;Fond;Oui;mesures fixes;Moy. annuelle;44.0;44.01436973820784;µg-m3;;;;R;1;45.1619;5.7356;Grenoble;38185;Grenoble;50.6;156389;6535;8626,0;70.7;22140;9.4;1.7;31.0;0.0
2022/01/01 00:00:00;2022/12/31 23:59:59;ATMO AUVERGNE-RHÔNE-ALPES;FR84ZAG02;ZAG GRENOBLE;FR15045;Grenoble PeriurbSud;Périurbaine;O3;Fond;Oui;mesures fixes;Moy. annuelle;51.0;51.464473227709135;µg-m3;;;;R;1;45.0578;5.6767;Vif;38545;Vif;33.3;8557;198;302.4;77.8;26090;4.6;26.7;0.0;0.0
2022/01/01 00:00:00;2022/12/31 23:59:59;ATMO AUVERGNE-RHÔNE-ALPES;FR84ZAG02;ZAG GRENOBLE;FR15048;Gresivaudan Periurb;Périurbaine;O3;Fond;Oui;mesures indicatives;Moy. annuelle;43.0;42.84795728876509;µg-m3;;;;R;1;45.2797;5.8822;Crolles;38140;Crolles;19.3;8463;378;595.6;76.7;28760;65.9;1.9;1.0;0.0
2022/01/01 00:00:00;2022/12/31 23:59:59;ATMO GRAND EST;FR44ZRE01;ZR GRAND-EST;FR16017;Nord-Est Alsace;Rurale régionale;O3;Fond;Oui;mesures fixes;Moy. annuelle;49.0;49.2370065025547;µg-m3;;;;R;1;48.919357;8.158458;Munchhausen;67308;Munchhausen;55.3;799;13;135,0;84.5;27410;0,0;17,0;0.0;1.0
2022/01/01 00:00:00;2022/12/31 23:59:59;ATMO GRAND EST;FR44ZAG01;ZAG STRASBOURG;FR16029;Strasbourg Nord;Urbaine;O3;Fond;Oui;mesures fixes;Moy. annuelle;48.0;48.345318701844434;µg-m3;;;;R;1;48.610363;7.781631;Strasbourg;67482;Strasbourg;48.4;291709;11377;3727.4;68.7;20260;4.4;2,0;83.0;1.0
2022/01/01 00:00:00;2022/12/31 23:59:59;ATMO GRAND EST;FR44ZRE01;ZR GRAND-EST;FR16031;Vosges du Nord;Rurale régionale;O3;Fond;Oui;mesures fixes;Moy. annuelle;65.0;65.27403430972109;µg-m3;;;;R;1;48.85731;7.314175;La Petite-Pierre;67371;La Petite-Pierre;70.2;599;29;30.6;80.8;23690;1.5;2.1;5.0;0.0
2022/01/01 00:00:00;2022/12/31 23:59:59;ATMO GRAND EST;FR44ZAG01;ZAG STRASBOURG;FR16041;Strasbourg Sud 2;Périurbaine;O3;Fond;Oui;mesures fixes;Moy. annuelle;49.0;49.21105556847241;µg-m3;;;;R;1;48.5157;7.687819;Geispolsheim;67152;Geispolsheim;67.1;7759;505;353.5;78.8;25970;12.8;12.7;6.0;0.0
2022/01/01 00:00:00;2022/12/31 23:59:59;ATMO GRAND EST;FR44ZRE01;ZR GRAND-EST;FR16064;Colmar Sud;Périurbaine;O3;Fond;Oui;mesures fixes;Moy. annuelle;55.0;54.60901078510948;µg-m3;;;;R;1;48.065414;7.333139;Colmar;68066;Colmar;39.9;67360;3025;1011.9;75.6;21120;11.6;4.1;32.0;0.0
2022/01/01 00:00:00;2022/12/31 23:59:59;ATMO GRAND EST;FR44ZRE01;ZR GRAND-EST;FR16065;Mulhouse Est;Périurbaine;O3;Fond;Oui;mesures fixes;Moy. annuelle;61.0;61.17539201098785;µg-m3;;;;R;1;47.723106;7.341603;Mulhouse;68224;Mulhouse;40.4;104924;3795;4730.6;67.5;16620;4.1;5.4;16.0;1.0
2022/01/01 00:00:00;2022/12/31 23:59:59;ATMO GRAND EST;FR44ZRE01;ZR GRAND-EST;FR16066;Mulhouse Sud 2;Urbaine;O3;Fond;Oui;mesures fixes;Moy. annuelle;52.0;51.85097383888439;µg-m3;;;;R;1;47.737415;7.309075;Mulhouse;68224;Mulhouse;40.4;104924;3795;4730.6;67.5;16620;4.1;5.4;16.0;1.0
2022/01/01 00:00:00;2022/12/31 23:59:59;ATMO GRAND EST;FR44ZRE01;ZR GRAND-EST;FR16302;Donon Vosges Moyennes 2;Rurale nationale;O3;Fond;Oui;mesures fixes;Moy. annuelle;70.0;70.33449929808154;µg-m3;;;;R;1;48.492992;7.1298;;nan;;;;;;;;;;;
2022/01/01 00:00:00;2022/12/31 23:59:59;ATMO HAUTS DE FRANCE;FR32ZAR03;ZAR CREIL;FR18019;Nogent sur Oise;Périurbaine;O3;Fond;Oui;mesures fixes;Moy. annuelle;29.0;28.52163865546218;µg-m3;;;;N;-1;49.276386;2.482167;Nogent-sur-Oise;60463;Nogent-sur-Oise;42.1;21859;412;2930.2;66.2;17620;14.9;7,0;0.0;0.0
2022/01/01 00:00:00;2022/12/31 23:59:59;ATMO HAUTS DE FRANCE;FR32ZAR02;ZAR AMIENS;FR18035;Salouel;Périurbaine;O3;Fond;Oui;mesures fixes;Moy. annuelle;45.0;45.48333333333337;µg-m3;;;;R;1;49.86889;2.239806;Salouël;80725;Salouël;68.5;4188;74;978.5;60.5;26820;3.1;1.9;0.0;0.0
2022/01/01 00:00:00;2022/12/31 23:59:59;ATMO HAUTS DE FRANCE;FR32ZRE01;ZR HAUTS-DE-FRANCE;FR18039;Arrest;Rurale régionale;O3;Fond;Oui;mesures fixes;Moy. annuelle;57.0;56.54656654820593;µg-m3;;;;R;1;50.129448;1.610833;Arrest;80029;Arrest;22.3;825;12;74,0;73.2;20660;65.5;2.2;0.0;0.0
2022/01/01 00:00:00;2022/12/31 23:59:59;ATMO HAUTS DE FRANCE;FR32ZRE01;ZR HAUTS-DE-FRANCE;FR18042;P. Roth St Quentin;Urbaine;O3;Fond;Oui;mesures fixes;Moy. annuelle;52.0;51.52490701999068;µg-m3;;;;R;1;49.851334;3.284;Saint-Quentin;2691;Saint-Quentin;41.6;52995;1768;2349.1;68.1;18400;7,0;3.3;8.0;1.0
2022/01/01 00:00:00;2022/12/31 23:59:59;ATMO HAUTS DE FRANCE;FR32ZAR03;ZAR CREIL;FR18043;Faiencerie Creil;Urbaine;O3;Fond;Oui;mesures fixes;Moy. annuelle;48.0;48.32370387946379;µg-m3;;;;R;1;49.259552;2.474397;Creil;60175;Creil;33.7;36494;911;3290.7;63.8;15440;7.7;4.6;3.0;0.0
2022/01/01 00:00:00;2022/12/31 23:59:59;ATMO HAUTS DE FRANCE;FR32ZRE01;ZR HAUTS-DE-FRANCE;FR18045;Roye;Rurale près des villes;O3;Fond;Oui;mesures fixes;Moy. annuelle;54.0;53.735193607867245;µg-m3;;;;R;1;49.696697;2.801139;Roye;80685;Roye;48.6;5748;273;369.6;72.7;18970;30,0;4.5;1.0;0.0
2022/01/01 00:00:00;2022/12/31 23:59:59;ATMO HAUTS DE FRANCE;FR32ZAR02;ZAR AMIENS;FR18053;St Pierre Amiens;Urbaine;O3;Fond;Oui;mesures fixes;Moy. annuelle;46.0;46.09747161418706;µg-m3;;;;R;1;49.901667;2.304597;Amiens;80021;Amiens;35.2;134780;4194;2708.6;66.2;19650;10.1;2.8;19.0;1.0
2022/01/01 00:00:00;2022/12/31 23:59:59;ATMO HAUTS DE FRANCE;FR32ZRE01;ZR HAUTS-DE-FRANCE;FR18057;Neuilly-Saint-Front;Rurale régionale;O3;Fond;Oui;mesures fixes;Moy. annuelle;52.0;52.312258953168005;µg-m3;;;;R;1;49.174931;3.260819;Neuilly-Saint-Front;2543;Neuilly-Saint-Front;43.7;1980;59;110.7;79,0;20960;14.4;4.7;0.0;0.0
2022/01/01 00:00:00;2022/12/31 23:59:59;AIR BREIZH;FR53ZAG01;ZAG RENNES;FR19010;Rennes St-Yves;Urbaine;O3;Fond;Oui;mesures fixes;Moy. annuelle;57.0;57.2009800226159;µg-m3;;;;R;1;48.11078;-1.68293;Rennes;35238;Rennes;43.2;227830;8528;4521.3;68,0;22770;2.9;1.7;34.0;1.0
2022/01/01 00:00:00;2022/12/31 23:59:59;AIR BREIZH;FR53ZAR01;ZAR BREST;FR19012;Brest Mace;Urbaine;O3;Fond;Oui;mesures fixes;Moy. annuelle;62.0;62.20512672811064;µg-m3;;;;R;1;48.38618;-4.4866;Brest;29019;Brest;41.9;140993;4160;2847.8;69,0;21420;11.8;3.3;25.0;1.0
2022/01/01 00:00:00;2022/12/31 23:59:59;AIR BREIZH;FR53ZAR01;ZAR BREST;FR19016;BREST Plouzané;Périurbaine;O3;Fond;Oui;mesures fixes;Moy. annuelle;68.0;67.91947517062846;µg-m3;;;;R;1;48.359444;-4.568055;Plouzané;29212;Plouzané;67.4;13437;243;405.5;71.1;24740;6.4;1.3;1.0;0.0
2022/01/01 00:00:00;2022/12/31 23:59:59;AIR BREIZH;FR53ZAG01;ZAG RENNES;FR19018;MORDELLES BELLAIS;Périurbaine;O3;Fond;Oui;mesures fixes;Moy. annuelle;56.0;55.99689150264042;µg-m3;;;;R;1;48.082883;-1.834583;Mordelles;35196;Mordelles;46.1;7831;227;263.1;78,0;23950;21,0;6.1;0.0;0.0
2022/01/01 00:00:00;2022/12/31 23:59:59;AIR BREIZH;FR53ZRE01;ZR BRETAGNE;FR19020;Kergoff;Rurale nationale;O3;Fond;Oui;mesures fixes;Moy. annuelle;68.0;68.29638852826619;µg-m3;;;;R;1;48.261963;-2.943631;;nan;;;;;;;;;;;
2022/01/01 00:00:00;2022/12/31 23:59:59;AIR BREIZH;FR53ZRE01;ZR BRETAGNE;FR19032;Lorient B. Bissonnet;Urbaine;O3;Fond;Oui;mesures fixes;Moy. annuelle;64.0;63.59783418723795;µg-m3;;;;R;1;47.7425;-3.39501;Lorient;56121;Lorient;40.2;58202;2615;3329.6;70.8;20860;12.8;3.9;15.0;0.0
2022/01/01 00:00:00;2022/12/31 23:59:59;AIR BREIZH;FR53ZRE01;ZR BRETAGNE;FR19033;Vannes UTA;Urbaine;O3;Fond;Oui;mesures fixes;Moy. annuelle;62.0;62.21686622150602;µg-m3;;;;R;1;47.64892;-2.76399;Vannes;56260;Vannes;44.1;54955;3080;1701.4;70.8;24070;6.3;3.4;22.0;1.0
2022/01/01 00:00:00;2022/12/31 23:59:59;AIR BREIZH;FR53ZAG01;ZAG RENNES;FR19039;Rennes Thabor;Urbaine;O3;Fond;Oui;mesures fixes;Moy. annuelle;43.0;43.19690909090908;µg-m3;;;;N;-1;48.11521;-1.673088;Rennes;35238;Rennes;43.2;227830;8528;4521.3;68,0;22770;2.9;1.7;34.0;1.0
2022/01/01 00:00:00;2022/12/31 23:59:59;AIR BREIZH;FR53ZRE01;ZR BRETAGNE;FR19053;Quimper Zola;Urbaine;O3;Fond;Oui;mesures fixes;Moy. annuelle;60.0;59.87404668361455;µg-m3;;;;R;1;47.986606;-4.097658;Quimper;29232;Quimper;39.7;64530;3044;764.1;74.1;22700;9.4;4,0;18.0;2.0
2022/01/01 00:00:00;2022/12/31 23:59:59;AIR BREIZH;FR53ZRE01;ZR BRETAGNE;FR19061;Saint Brieuc Balzac;Urbaine;O3;Fond;Oui;mesures fixes;Moy. annuelle;60.0;59.75255381035485;µg-m3;;;;R;1;48.51351;-2.74953;Saint-Brieuc;22278;Saint-Brieuc;25.1;44607;1581;2038.7;71.7;20910;4.3;2.3;8.0;1.0
2022/01/01 00:00:00;2022/12/31 23:59:59;AIR BREIZH;FR53ZRE01;ZR BRETAGNE;FR19082;StMalo Rocabey;Périurbaine;O3;Fond;Oui;mesures fixes;Moy. annuelle;60.0;60.480355276907126;µg-m3;;;;R;1;48.65306;-2.00268;Saint-Malo;35288;Saint-Malo;47.7;47255;2525;1291.8;73.5;23490;12.1;4.4;77.0;3.0
2022/01/01 00:00:00;2022/12/31 23:59:59;ATMO AUVERGNE-RHÔNE-ALPES;FR84ZAG01;ZAG LYON;FR20017;GERLAND;Urbaine;O3;Fond;Oui;mesures indicatives;Moy. annuelle;54.0;54.023940729855546;µg-m3;;;;R;1;45.73529;4.829794;Lyon;69387;;;;;;;;;;;
2022/01/01 00:00:00;2022/12/31 23:59:59;ATMO AUVERGNE-RHÔNE-ALPES;FR84ZAG01;ZAG LYON;FR20037;TERNAY;Périurbaine;O3;Fond;Oui;mesures fixes;Moy. annuelle;57.0;56.585467208357535;µg-m3;;;;R;1;45.6019;4.8022;Ternay;69297;Ternay;52,0;5582;162;692.6;78.2;27400;19.4;19.4;0.0;0.0
2022/01/01 00:00:00;2022/12/31 23:59:59;ATMO AUVERGNE-RHÔNE-ALPES;FR84ZAG01;ZAG LYON;FR20046;VAULX EN VELIN;Urbaine;O3;Fond;Oui;mesures indicatives;Moy. annuelle;53.0;52.65677441540574;µg-m3;;;;R;1;45.7789;4.9247;Vaulx-en-Velin;69256;Vaulx-en-Velin;53.4;52448;1893;2503.5;67.8;17180;10.3;11,0;2.0;0.0
2022/01/01 00:00:00;2022/12/31 23:59:59;ATMO AUVERGNE-RHÔNE-ALPES;FR84ZAG01;ZAG LYON;FR20047;COTIERE AIN;Périurbaine;O3;Fond;Oui;mesures indicatives;Moy. annuelle;55.0;55.11143526654948;µg-m3;;;;R;1;45.823223;4.953958;Miribel;1249;Miribel;38.8;10450;389;426.7;79.8;26720;24.8;12.3;0.0;0.0
2022/01/01 00:00:00;2022/12/31 23:59:59;ATMO AUVERGNE-RHÔNE-ALPES;FR84ZAG01;ZAG LYON;FR20048;SAINT EXUPERY;Périurbaine;O3;Fond;Oui;mesures fixes;Moy. annuelle;54.0;54.11002687857904;µg-m3;;;;R;1;45.7533;5.0722;;nan;;;;;;;;;;;
2022/01/01 00:00:00;2022/12/31 23:59:59;ATMO AUVERGNE-RHÔNE-ALPES;FR84ZRE02;ZR AUVERGNE-RHONE-ALPES;FR20049;HAUT BEAUJOLAIS;Rurale près des villes;O3;Fond;Oui;mesures fixes;Moy. annuelle;73.0;72.69572649572643;µg-m3;;;;R;1;45.96141;4.465711;Dième;69075;Dième;42.9;196;6;21.7;79.5;23960;0,0;28.6;0.0;0.0
2022/01/01 00:00:00;2022/12/31 23:59:59;ATMO AUVERGNE-RHÔNE-ALPES;FR84ZAG01;ZAG LYON;FR20062;LYON Centre;Urbaine;O3;Fond;Oui;mesures fixes;Moy. annuelle;50.0;50.08304210155984;µg-m3;;;;R;1;45.757732;4.854214;Lyon;69383;;;;;;;;;;;
2022/01/01 00:00:00;2022/12/31 23:59:59;ATMO AUVERGNE-RHÔNE-ALPES;FR84ZAG01;ZAG LYON;FR20077;Villefranche Centre ;Urbaine;O3;Fond;Oui;mesures indicatives;Moy. annuelle;40.0;40.18016423779783;µg-m3;;;;R;1;45.990112;4.715566;Villefranche-sur-Saône;69264;Villefranche-sur-Saône;54.9;36224;1728;3821.1;72.5;19640;10.7;3.2;9.0;1.0
2022/01/01 00:00:00;2022/12/31 23:59:59;ATMO NORMANDIE;FR28ZAR02;ZAR CAEN;FR21001;Caen Chemin-Vert;Urbaine;O3;Fond;Oui;mesures fixes;Moy. annuelle;55.0;54.745614644884654;µg-m3;;;;R;1;49.19222;-0.391111;Caen;14118;Caen;35.6;108398;4516;4217.8;66.2;21600;2.3;1.6;32.0;0.0
2022/01/01 00:00:00;2022/12/31 23:59:59;ATMO NORMANDIE;FR28ZAR02;ZAR CAEN;FR21017;Ouistreham;Périurbaine;O3;Fond;Oui;mesures fixes;Moy. annuelle;57.0;57.16889732091522;µg-m3;;;;R;1;49.289444;-0.257778;Ouistreham;14488;Ouistreham;65.4;9261;346;930.8;70.9;24050;4.9;1.8;10.0;2.0
2022/01/01 00:00:00;2022/12/31 23:59:59;ATMO NORMANDIE;FR28ZAR02;ZAR CAEN;FR21019;IFS Caen sud;Urbaine;O3;Fond;Oui;mesures fixes;Moy. annuelle;50.0;49.7613712132193;µg-m3;;;;N;-1;49.15167;-0.352778;Ifs;14341;Ifs;60.2;11868;402;1309.9;73.9;22310;8.4;10.6;3.0;0.0
2022/01/01 00:00:00;2022/12/31 23:59:59;ATMO NORMANDIE;FR28ZRE02;ZR NORMANDIE;FR21021;Lisieux;Urbaine;O3;Fond;Oui;mesures fixes;Moy. annuelle;50.0;49.730143595634736;µg-m3;;;;R;1;49.147224;0.227222;Lisieux;14366;Lisieux;43.9;19540;903;1495,0;72.6;19440;12.2;3.4;11.0;1.0
2022/01/01 00:00:00;2022/12/31 23:59:59;ATMO NORMANDIE;FR28ZRE02;ZR NORMANDIE;FR21031;Alençon Météo-France;Périurbaine;O3;Fond;Oui;mesures fixes;Moy. annuelle;57.0;57.01336201883935;µg-m3;;;;R;1;48.445553;0.110833;Cerisé;61077;Cerisé;77.2;853;67;193,0;72.3;21400;6.3;7.3;1.0;0.0
2022/01/01 00:00:00;2022/12/31 23:59:59;ATMO NORMANDIE;FR28ZRE02;ZR NORMANDIE;FR21038;Cherbourg Hotel de Ville;Urbaine;O3;Fond;Oui;mesures fixes;Moy. annuelle;61.0;61.00117536436302;µg-m3;;;;R;1;49.64225;-1.624361;Cherbourg-en-Cotentin;50129;Cherbourg-en-Cotentin;41.7;78028;2165;1138.4;74.7;22650;19.4;3.4;23.0;4.0
2022/01/01 00:00:00;2022/12/31 23:59:59;ATMO NORMANDIE;FR28ZRE02;ZR NORMANDIE;FR21040;Saint-Lô Eglise;Urbaine;O3;Fond;Oui;mesures fixes;Moy. annuelle;57.0;57.49691725876698;µg-m3;;;;R;1;49.11639;-1.084722;Saint-Lô;50502;Saint-Lô;32.3;19352;1091;834.5;72.7;21010;5.6;2.8;9.0;0.0
2022/01/01 00:00:00;2022/12/31 23:59:59;ATMO NORMANDIE;FR28ZRE02;ZR NORMANDIE;FR21050;La Coulonche MERA;Rurale nationale;O3;Fond;Oui;mesures fixes;Moy. annuelle;68.0;68.35079328581274;µg-m3;;;;R;1;48.645;-0.458333;La Coulonche;61124;La Coulonche;14.3;498;9;34.8;79.8;22250;0,0;69.4;0.0;0.0
2022/01/01 00:00:00;2022/12/31 23:59:59;ATMO GRAND EST;FR44ZRE01;ZR GRAND-EST;FR22019;SCHOENECK (19);Périurbaine;O3;Fond;Oui;mesures fixes;Moy. annuelle;57.0;57.44719251336908;µg-m3;;;;R;1;49.220364;6.925833;Schœneck;57638;Schœneck;17.3;2442;33;601.5;77,0;24080;48.7;1,0;0.0;0.0
2022/01/01 00:00:00;2022/12/31 23:59:59;ATMO GRAND EST;FR44ZRE01;ZR GRAND-EST;FR22054;Station de FORBACH;Urbaine;O3;Fond;Oui;mesures fixes;Moy. annuelle;60.0;59.578854280795206;µg-m3;;;;N;-1;49.18742;6.910867;Forbach;57227;Forbach;37.7;21111;682;1293.6;63.7;17540;9.1;3.8;3.0;0.0
2022/01/01 00:00:00;2022/12/31 23:59:59;AIR PAYS DE LA LOIRE;FR52ZRE01;ZR PAYS-DE-LA-LOIRE;FR23078;SAINT EXUPERY;Urbaine;O3;Fond;Oui;mesures fixes;Moy. annuelle;59.0;59.16091585575277;µg-m3;;;;R;1;47.054443;-0.886111;Cholet;49099;Cholet;40.1;54074;2258;618.2;76.5;21960;26.1;4.4;18.0;1.0
2022/01/01 00:00:00;2022/12/31 23:59:59;AIR PAYS DE LA LOIRE;FR52ZAG01;ZAG NANTES-SAINT-NAZAIRE;FR23110;LEON BLUM;Urbaine;O3;Fond;Oui;mesures fixes;Moy. annuelle;62.0;61.76157380815618;µg-m3;;;;R;1;47.26412;-2.249858;Saint-Nazaire;44184;Saint-Nazaire;32.1;73111;2188;1562.5;74.1;21900;26.5;4.4;11.0;1.0
2022/01/01 00:00:00;2022/12/31 23:59:59;AIR PAYS DE LA LOIRE;FR52ZAR03;ZAR LAVAL;FR23123;MAZAGRAN;Urbaine;O3;Fond;Oui;mesures fixes;Moy. annuelle;55.0;54.98716773602212;µg-m3;;;;R;1;48.06943;-0.767692;Laval;53130;Laval;41.5;49474;2108;1445.8;72.8;21660;10.7;3.4;13.0;0.0
2022/01/01 00:00:00;2022/12/31 23:59:59;AIR PAYS DE LA LOIRE;FR52ZRE01;ZR PAYS-DE-LA-LOIRE;FR23124;LA TARDIERE;Rurale nationale;O3;Fond;Oui;mesures fixes;Moy. annuelle;59.0;58.59189374856901;µg-m3;;;;R;1;46.656685;-0.743681;Terval;85289;Terval;36.5;2173;74;47.5;75.3;21160;29.3;14.7;0.0;1.0
2022/01/01 00:00:00;2022/12/31 23:59:59;AIR PAYS DE LA LOIRE;FR52ZAR01;ZAR ANGERS-LOIRE;FR23150;APPENTIS;Urbaine;O3;Fond;Oui;mesures fixes;Moy. annuelle;59.0;58.61301700367641;µg-m3;;;;R;1;47.44739;-0.550067;Angers;49007;Angers;43.8;157555;5387;3688.9;69.9;21450;3.4;1.7;26.0;1.0
2022/01/01 00:00:00;2022/12/31 23:59:59;AIR PAYS DE LA LOIRE;FR52ZRE01;ZR PAYS-DE-LA-LOIRE;FR23152;DELACROIX;Urbaine;O3;Fond;Oui;mesures fixes;Moy. annuelle;57.0;57.49336612146863;µg-m3;;;;R;1;46.6607;-1.436831;La Roche-sur-Yon;85191;La Roche-sur-Yon;40.2;54699;2599;625,0;72.2;22310;8,0;4.2;10.0;1.0
2022/01/01 00:00:00;2022/12/31 23:59:59;AIR PAYS DE LA LOIRE;FR52ZAG01;ZAG NANTES-SAINT-NAZAIRE;FR23157;EPINETTES;Périurbaine;O3;Fond;Oui;mesures fixes;Moy. annuelle;62.0;62.35889845094665;µg-m3;;;;R;1;47.146088;-1.690269;Bouaye;44018;Bouaye;34.1;8281;240;598.8;79.1;25390;11.7;9.8;2.0;0.0
2022/01/01 00:00:00;2022/12/31 23:59:59;AIR PAYS DE LA LOIRE;FR52ZRE01;ZR PAYS-DE-LA-LOIRE;FR23163;Fillé;Périurbaine;O3;Fond;Oui;mesures fixes;Moy. annuelle;54.0;53.98735751295329;µg-m3;;;;R;1;47.92192;0.151825;Spay;72344;Spay;41.1;2821;69;198.4;74.4;25090;37,0;16.8;0.0;1.0
2022/01/01 00:00:00;2022/12/31 23:59:59;AIR PAYS DE LA LOIRE;FR52ZAR01;ZAR ANGERS-LOIRE;FR23175;CLOS DES BEAUVAIS;Périurbaine;O3;Fond;Oui;mesures fixes;Moy. annuelle;59.0;59.43006416131985;µg-m3;;;;R;1;47.430164;-0.610064;Bouchemaine;49035;Bouchemaine;27.5;6635;149;334.9;76.5;28850;11.4;8.1;0.0;1.0
2022/01/01 00:00:00;2022/12/31 23:59:59;AIR PAYS DE LA LOIRE;FR52ZRE01;ZR PAYS-DE-LA-LOIRE;FR23177;SAINT-DENIS D'ANJOU;Rurale régionale;O3;Fond;Oui;mesures fixes;Moy. annuelle;59.0;59.362010062010114;µg-m3;;;;R;1;47.78773;-0.444044;Saint-Denis-d'Anjou;53210;Saint-Denis-d'Anjou;9.6;1512;35;36.1;78.4;21580;42.8;8.8;1.0;0.0
2022/01/01 00:00:00;2022/12/31 23:59:59;AIR PAYS DE LA LOIRE;FR52ZAR02;ZAR LE-MANS;FR23182;SOURCES;Urbaine;O3;Fond;Oui;mesures fixes;Moy. annuelle;60.0;59.69657043879918;µg-m3;;;;R;1;47.971066;0.221422;Le Mans;72181;Le Mans;47.6;145182;4784;2749.1;72.7;21180;8.4;3.6;24.0;0.0
2022/01/01 00:00:00;2022/12/31 23:59:59;AIR PAYS DE LA LOIRE;FR52ZAG01;ZAG NANTES-SAINT-NAZAIRE;FR23188;CIM BOUTEILLERIE;Urbaine;O3;Fond;Oui;mesures fixes;Moy. annuelle;57.0;56.577105657333824;µg-m3;;;;R;1;47.2225;-1.5375;Nantes;44109;Nantes;52.2;325070;11775;4986.5;74,0;24170;4.3;2.2;49.0;1.0
2022/01/01 00:00:00;2022/12/31 23:59:59;AIR PAYS DE LA LOIRE;FR52ZAG01;ZAG NANTES-SAINT-NAZAIRE;FR23230;GASPARD;Périurbaine;O3;Fond;Oui;mesures fixes;Moy. annuelle;66.0;65.79370853351638;µg-m3;;;;R;1;47.253056;-2.332067;Pornichet;44132;Pornichet;63.5;12530;486;989,0;76.4;27460;5.4;7.9;9.0;5.0
2022/01/01 00:00:00;2022/12/31 23:59:59;ATMO SUD;FR93ZAG02;ZAG NICE;FR24007;ANTIBES JEAN MOULIN;Périurbaine;O3;Fond;Oui;mesures fixes;Moy. annuelle;56.0;55.77617848970251;µg-m3;;;;R;1;43.598803;7.093153;Antibes;6004;Antibes;53,0;76612;3754;2893.2;77.7;24410;6.8;5.2;61.0;5.0
2022/01/01 00:00:00;2022/12/31 23:59:59;ATMO SUD;FR93ZAG02;ZAG NICE;FR24009;CANNES BROUSSAILLES;Urbaine;O3;Fond;Oui;mesures fixes;Moy. annuelle;66.0;66.4138175985335;µg-m3;;;;R;1;43.558389;7.005919;Cannes;6029;Cannes;59,0;74040;4759;3773.7;73.5;21210;7.4;2.6;91.0;1.0
2022/01/01 00:00:00;2022/12/31 23:59:59;ATMO SUD;FR93ZAG02;ZAG NICE;FR24011;NICE OUEST BOTANIQUE;Périurbaine;O3;Fond;Oui;mesures fixes;Moy. annuelle;73.0;72.57943361188478;µg-m3;;;;R;1;43.685188;7.211174;Nice;6088;Nice;48.1;353701;16194;4918,0;72,0;21570;3.5;4.9;161.0;0.0
2022/01/01 00:00:00;2022/12/31 23:59:59;ATMO SUD;FR93ZRE02;ZR PROVENCE-ALPES-COTE-D-AZUR;FR24014;CIANS;Rurale régionale;O3;Fond;Oui;mesures fixes;Moy. annuelle;79.0;78.5814120370371;µg-m3;;;;R;1;44.094688;6.988978;Beuil;6016;Beuil;59.3;553;25;7.3;73.2;21720;3.7;5.6;2.0;1.0
2022/01/01 00:00:00;2022/12/31 23:59:59;ATMO SUD;FR93ZRE02;ZR PROVENCE-ALPES-COTE-D-AZUR;FR24018;MANOSQUE;Urbaine;O3;Fond;Oui;mesures fixes;Moy. annuelle;68.0;67.72838821490481;µg-m3;;;;R;1;43.835784;5.786131;Manosque;4112;Manosque;53,0;22807;1365;402,0;72.9;21170;11.2;5.4;11.0;1.0
2022/01/01 00:00:00;2022/12/31 23:59:59;ATMO SUD;FR93ZRE02;ZR PROVENCE-ALPES-COTE-D-AZUR;FR24033;GAP COMMANDERIE;Urbaine;O3;Fond;Oui;mesures fixes;Moy. annuelle;53.0;53.43559639470908;µg-m3;;;;R;1;44.555193;6.073015;Gap;5061;Gap;40.7;40656;1926;368.2;74.8;22280;3.1;5.3;17.0;2.0
2022/01/01 00:00:00;2022/12/31 23:59:59;ATMO SUD;FR93ZAG02;ZAG NICE;FR24036;NICE ARSON;Urbaine;O3;Fond;Oui;mesures fixes;Moy. annuelle;53.0;52.5985454128965;µg-m3;;;;R;1;43.702075;7.286256;Nice;6088;Nice;48.1;353701;16194;4918,0;72,0;21570;3.5;4.9;161.0;0.0
2022/01/01 00:00:00;2022/12/31 23:59:59;ATMO SUD;FR93ZRE02;ZR PROVENCE-ALPES-COTE-D-AZUR;FR24039;Obs Haute-Provence;Rurale près des villes;O3;Fond;Oui;mesures fixes;Moy. annuelle;86.0;85.72449850126824;µg-m3;;;;R;1;43.933476;5.711809;;nan;;;;;;;;;;;
2022/01/01 00:00:00;2022/12/31 23:59:59;ATMO SUD;FR93ZRE02;ZR PROVENCE-ALPES-COTE-D-AZUR;FR24040;Cheiron;Rurale régionale;O3;Fond;Oui;mesures fixes;Moy. annuelle;87.0;87.03788990825693;µg-m3;;;;R;1;43.791911;7.048276;Coursegoules;6050;Coursegoules;62.7;545;23;13.3;85.9;21460;1.5;9,0;0.0;0.0
2022/01/01 00:00:00;2022/12/31 23:59:59;ATMO NORMANDIE;FR28ZAG01;ZAG ROUEN;FR25036;Espace du Palais;Urbaine;O3;Fond;Oui;mesures fixes;Moy. annuelle;47.0;47.20705937353917;µg-m3;;;;R;1;49.442358;1.093789;Rouen;76540;Rouen;42,0;116331;5530;5441.1;69.2;21330;3.8;2.1;39.0;0.0
2022/01/01 00:00:00;2022/12/31 23:59:59;ATMO NORMANDIE;FR28ZRE02;ZR NORMANDIE;FR25039;Evreux Centre;Urbaine;O3;Fond;Oui;mesures fixes;Moy. annuelle;54.0;54.390934579439325;µg-m3;;;;R;1;49.02134;1.148319;Évreux;27229;Évreux;30.4;48335;1810;1826.7;70.7;18580;10.2;2.8;12.0;0.0
2022/01/01 00:00:00;2022/12/31 23:59:59;ATMO NORMANDIE;FR28ZAG01;ZAG ROUEN;FR25040;Mesnil Esnard;Périurbaine;O3;Fond;Oui;mesures fixes;Moy. annuelle;64.0;63.625138568129245;µg-m3;;;;R;1;49.40619;1.15515;Le Mesnil-Esnard;76429;Le Mesnil-Esnard;42.7;7998;219;1577.5;73.7;28210;3.1;2.6;0.0;0.0
2022/01/01 00:00:00;2022/12/31 23:59:59;ATMO NORMANDIE;FR28ZAG01;ZAG ROUEN;FR25043;Centre Hospitalier;Urbaine;O3;Fond;Oui;mesures fixes;Moy. annuelle;53.0;52.77852047860112;µg-m3;;;;R;1;49.4005;1.099042;Sotteville-lès-Rouen;76681;Sotteville-lès-Rouen;42,0;29039;643;3903.1;73.9;21230;9.2;9.1;0.0;0.0
2022/01/01 00:00:00;2022/12/31 23:59:59;ATMO NORMANDIE;FR28ZRE02;ZR NORMANDIE;FR25049;Base loisirs Poses;Rurale près des villes;O3;Fond;Oui;mesures fixes;Moy. annuelle;58.0;57.506434761961366;µg-m3;;;;R;1;49.30487;1.214367;Val-de-Reuil;27701;Val-de-Reuil;40.2;12939;414;498.8;64.9;17140;39.8;6,0;5.0;0.0
2022/01/01 00:00:00;2022/12/31 23:59:59;ATMO NORMANDIE;FR28ZRE02;ZR NORMANDIE;FR25050;Bures-en-bray;Rurale régionale;O3;Fond;Oui;mesures fixes;Moy. annuelle;57.0;56.81868408986711;µg-m3;;;;R;1;49.78122;1.345083;Bures-en-Bray;76148;Bures-en-Bray;10.8;315;9;28.7;78.5;21380;66.2;13.8;0.0;0.0
2022/01/01 00:00:00;2022/12/31 23:59:59;ATMO NORMANDIE;FR28ZRE02;ZR NORMANDIE;FR25055;Dieppe Golf;Périurbaine;O3;Fond;Oui;mesures fixes;Moy. annuelle;62.0;62.28349018240959;µg-m3;;;;R;1;49.920492;1.047892;Dieppe;76217;Dieppe;39.9;28599;1132;2450.6;67.6;18850;10.7;1.4;15.0;0.0
2022/01/01 00:00:00;2022/12/31 23:59:59;ATMO BOURGOGNE-FRANCHE-COMTE;FR27ZAR02;ZAR DIJON;FR26005;Dijon Péjoces;Périurbaine;O3;Fond;Oui;mesures fixes;Moy. annuelle;57.0;57.25487549453112;µg-m3;;;;R;1;47.307368;5.065881;Dijon;21231;Dijon;42.6;159941;5701;3958,0;70.3;22720;4.5;2.7;40.0;1.0
2022/01/01 00:00:00;2022/12/31 23:59:59;ATMO BOURGOGNE-FRANCHE-COMTE;FR27ZAR02;ZAR DIJON;FR26010;Daix;Périurbaine;O3;Fond;Oui;mesures fixes;Moy. annuelle;62.0;62.4871017229172;µg-m3;;;;R;1;47.3456;5.002377;Daix;21223;Daix;60.1;1520;30;128.8;74.8;33340;2.5;18.4;1.0;0.0
2022/01/01 00:00:00;2022/12/31 23:59:59;ATMO BOURGOGNE-FRANCHE-COMTE;FR27ZRE01;ZR BOURGOGNE-FRANCHE-COMTE;FR26012;Morvan;Rurale nationale;O3;Fond;Oui;mesures fixes;Moy. annuelle;64.0;64.14311126613187;µg-m3;;;;R;1;47.274762;4.099476;Saint-Brisson;58235;Saint-Brisson;18.5;252;11;8.5;63.7;19680;0,0;0,0;0.0;1.0
2022/01/01 00:00:00;2022/12/31 23:59:59;ATMO BOURGOGNE-FRANCHE-COMTE;FR27ZRE01;ZR BOURGOGNE-FRANCHE-COMTE;FR26016;Sens;Urbaine;O3;Fond;Oui;mesures fixes;Moy. annuelle;54.0;53.58099537037034;µg-m3;;;;N;-1;48.200436;3.2773;Sens;89387;Sens;38.7;27275;1217;1245.4;71.4;18610;11.1;3.6;6.0;0.0
2022/01/01 00:00:00;2022/12/31 23:59:59;ATMO BOURGOGNE-FRANCHE-COMTE;FR27ZRE01;ZR BOURGOGNE-FRANCHE-COMTE;FR26017;Nevers;Urbaine;O3;Fond;Oui;mesures fixes;Moy. annuelle;52.0;52.1764921525948;µg-m3;;;;R;1;46.996828;3.171092;Nevers;58194;Nevers;31.8;33172;1441;1914.1;66.9;20050;7.9;2.8;11.0;1.0
2022/01/01 00:00:00;2022/12/31 23:59:59;ATMO BOURGOGNE-FRANCHE-COMTE;FR27ZRE01;ZR BOURGOGNE-FRANCHE-COMTE;FR26019;Auxerre;Urbaine;O3;Fond;Oui;mesures fixes;Moy. annuelle;58.0;58.167225216780096;µg-m3;;;;R;1;47.800575;3.576189;Auxerre;89024;Auxerre;40.9;35236;1691;705.4;72,0;20340;7,0;2.6;10.0;1.0
2022/01/01 00:00:00;2022/12/31 23:59:59;ATMO AUVERGNE-RHÔNE-ALPES;FR84ZAR02;ZAR VALLEE-DU-RHONE;FR27002;ROUSSILLON;Urbaine;O3;Fond;Oui;mesures indicatives;Moy. annuelle;51.0;50.60914015675433;µg-m3;;;;R;1;45.36782;4.805147;Roussillon;38344;Roussillon;30.6;8584;284;738.7;72.6;21080;27.6;12.3;5.0;0.0
2022/01/01 00:00:00;2022/12/31 23:59:59;ATMO AUVERGNE-RHÔNE-ALPES;FR84ZRE02;ZR AUVERGNE-RHONE-ALPES;FR27003;ROCHES DE CONDRIEU;Périurbaine;O3;Fond;Oui;mesures fixes;Moy. annuelle;58.0;58.314081750143934;µg-m3;;;;R;1;45.454517;4.766528;Les Roches-de-Condrieu;38340;Les Roches-de-Condrieu;13.2;2031;32;1971.8;80,0;22780;20.7;53.7;1.0;0.0
2022/01/01 00:00:00;2022/12/31 23:59:59;ATMO AUVERGNE-RHÔNE-ALPES;FR84ZAR02;ZAR VALLEE-DU-RHONE;FR27005;Sablons;Périurbaine;O3;Fond;Oui;mesures indicatives;Moy. annuelle;55.0;55.34580126364168;µg-m3;;;;R;1;45.321845;4.770702;Sablons;38349;Sablons;38.1;2306;55;225.4;79.6;24350;27.2;17.2;0.0;0.0
2022/01/01 00:00:00;2022/12/31 23:59:59;ATMO AUVERGNE-RHÔNE-ALPES;FR84ZAG01;ZAG LYON;FR27007;Bourgoin-Jallieu;Urbaine;O3;Fond;Oui;mesures indicatives;Moy. annuelle;56.0;55.507373046875045;µg-m3;;;;R;1;45.60822;5.270872;Bourgoin-Jallieu;38053;Bourgoin-Jallieu;42.3;29816;1404;1223.5;76.2;20870;11.4;4.5;3.0;0.0
2022/01/01 00:00:00;2022/12/31 23:59:59;ATMO AUVERGNE-RHÔNE-ALPES;FR84ZRE02;ZR AUVERGNE-RHONE-ALPES;FR27010;Plateau de Bonnevaux;Rurale près des villes;O3;Fond;Oui;mesures fixes;Moy. annuelle;73.0;73.13507032510933;µg-m3;;;;R;1;45.4609;5.181081;Lieudieu;38211;Lieudieu;38.1;347;9;58.4;82.6;22330;19,0;0,0;0.0;0.0
2022/01/01 00:00:00;2022/12/31 23:59:59;ATMO HAUTS DE FRANCE;FR32ZAG01;ZAG BLDV;FR28010;Harnes Serres;Périurbaine;O3;Fond;Oui;mesures fixes;Moy. annuelle;51.0;51.49103988770618;µg-m3;;;;R;1;50.44914;2.9;Harnes;62413;Harnes;39.1;12264;213;1139.8;68.5;18510;31.5;9.5;0.0;0.0
2022/01/01 00:00:00;2022/12/31 23:59:59;ATMO HAUTS DE FRANCE;FR32ZAR04;ZAR ARRAS;FR28022;St-Laurent-Blangy;Périurbaine;O3;Fond;Oui;mesures fixes;Moy. annuelle;51.0;50.93842803030296;µg-m3;;;;N;-1;50.30886;2.807369;Saint-Laurent-Blangy;62753;Saint-Laurent-Blangy;47.5;6492;328;660.4;78.3;21570;14.5;9.6;1.0;0.0
2022/01/01 00:00:00;2022/12/31 23:59:59;ATMO HAUTS DE FRANCE;FR32ZAG01;ZAG BLDV;FR28028;Bethune Stade;Urbaine;O3;Fond;Oui;mesures fixes;Moy. annuelle;54.0;54.494526257293714;µg-m3;;;;N;-1;50.535385;2.635692;Béthune;62119;Béthune;37.7;25342;1106;2678.9;69.1;19290;8.8;2.1;5.0;0.0
2022/01/01 00:00:00;2022/12/31 23:59:59;ATMO HAUTS DE FRANCE;FR32ZAG01;ZAG BLDV;FR28033;Noeux-les-Mines;Périurbaine;O3;Fond;Oui;mesures fixes;Moy. annuelle;53.0;52.73311778876636;µg-m3;;;;R;1;50.48972;2.66642;Nœux-les-Mines;62617;Nœux-les-Mines;42.6;11384;246;1287.8;70.2;18650;12.1;4.9;1.0;0.0
2022/01/01 00:00:00;2022/12/31 23:59:59;ATMO AUVERGNE-RHÔNE-ALPES;FR84ZRE02;ZR AUVERGNE-RHONE-ALPES;FR29423;ROANNE;Urbaine;O3;Fond;Oui;mesures indicatives;Moy. annuelle;47.0;46.6049108176974;µg-m3;;;;R;1;46.04111;4.074656;Roanne;42187;Roanne;34.6;35364;1641;2193.8;68.4;18930;21.2;2.7;4.0;0.0
2022/01/01 00:00:00;2022/12/31 23:59:59;ATMO AUVERGNE-RHÔNE-ALPES;FR84ZAG03;ZAG SAINT-ETIENNE;FR29424;SAINT ETIENNE SUD;Urbaine;O3;Fond;Oui;mesures indicatives;Moy. annuelle;54.0;53.97522039552073;µg-m3;;;;R;1;45.42009;4.395422;Saint-Étienne;42218;Saint-Étienne;41.6;172569;6205;2157.9;68.2;19010;7.9;3.8;21.0;1.0
2022/01/01 00:00:00;2022/12/31 23:59:59;ATMO AUVERGNE-RHÔNE-ALPES;FR84ZAG03;ZAG SAINT-ETIENNE;FR29426;SAINT-CHAMOND;Urbaine;O3;Fond;Oui;mesures indicatives;Moy. annuelle;52.0;51.87739441495487;µg-m3;;;;R;1;45.475327;4.515003;Saint-Chamond;42207;Saint-Chamond;33.8;35586;1012;648.4;71.5;20330;19.8;5,0;2.0;0.0
2022/01/01 00:00:00;2022/12/31 23:59:59;ATMO AUVERGNE-RHÔNE-ALPES;FR84ZAG03;ZAG SAINT-ETIENNE;FR29439;LA TALAUDIERE;Périurbaine;O3;Fond;Oui;mesures fixes;Moy. annuelle;58.0;57.75779490219326;µg-m3;;;;R;1;45.481777;4.429667;La Talaudière;42305;La Talaudière;34.9;7103;347;930.9;69.5;23700;37.9;7.1;0.0;0.0
2022/01/01 00:00:00;2022/12/31 23:59:59;ATMO GRAND EST;FR44ZRE01;ZR GRAND-EST;FR30019;Epinal;Urbaine;O3;Fond;Oui;mesures fixes;Moy. annuelle;51.0;51.41462192706514;µg-m3;;;;R;1;48.1726528;6.45281666;Épinal;88160;Épinal;32.8;32296;1603;545.2;69.4;20140;5.5;2.4;9.0;1.0
2022/01/01 00:00:00;2022/12/31 23:59:59;ATMO GRAND EST;FR44ZRE01;ZR GRAND-EST;FR30028;Schlucht;Rurale près des villes;O3;Fond;Oui;mesures fixes;Moy. annuelle;71.0;71.21994612621853;µg-m3;;;;N;-1;48.051117;7.011114;Xonrupt-Longemer;88531;Xonrupt-Longemer;65.4;1475;67;48,0;76.2;24300;14.2;7.9;8.0;9.0
2022/01/01 00:00:00;2022/12/31 23:59:59;ATMO GRAND EST;FR44ZRE01;ZR GRAND-EST;FR30033;Jonville en Woevre;Rurale régionale;O3;Fond;Oui;mesures fixes;Moy. annuelle;57.0;56.85407998150713;µg-m3;;;;R;1;49.06583;5.785556;Jonville-en-Woëvre;55256;Jonville-en-Woëvre;0,0;144;4;13.3;67.1;23170;16.7;16.7;0.0;0.0
2022/01/01 00:00:00;2022/12/31 23:59:59;ATMO GRAND EST;FR44ZAG03;ZAG NANCY;FR30034;Nancy-Charles III;Urbaine;O3;Fond;Oui;mesures fixes;Moy. annuelle;52.0;51.69161641929501;µg-m3;;;;R;1;48.68817;6.190431;Nancy;54395;Nancy;38.5;104387;4349;6954.5;66.2;22360;2.6;2,0;21.0;0.0
2022/01/01 00:00:00;2022/12/31 23:59:59;ATMO GRAND EST;FR44ZAG03;ZAG NANCY;FR30037;Nancy-Brabois 2;Périurbaine;O3;Fond;Oui;mesures fixes;Moy. annuelle;60.0;59.57369882026367;µg-m3;;;;R;1;48.656944;6.136022;Villers-lès-Nancy;54578;Villers-lès-Nancy;47.4;14938;327;1501.3;72.9;26760;19.4;2.3;0.0;1.0
2022/01/01 00:00:00;2022/12/31 23:59:59;ATMO NOUVELLE-AQUITAINE;FR75ZAG01;ZAG BORDEAUX;FR31001;GRAND PARC;Urbaine;O3;Fond;Oui;mesures fixes;Moy. annuelle;56.0;56.249614543781085;µg-m3;;;;R;1;44.86121;-0.58037;Bordeaux;33063;Bordeaux;50.4;265328;14548;5375.4;73.5;24870;4.1;1.9;85.0;0.0
2022/01/01 00:00:00;2022/12/31 23:59:59;ATMO NOUVELLE-AQUITAINE;FR75ZAG01;ZAG BORDEAUX;FR31002;TALENCE;Urbaine;O3;Fond;Oui;mesures fixes;Moy. annuelle;59.0;58.89813943978744;µg-m3;;;;N;-1;44.800462;-0.589398;Talence;33522;Talence;38.3;45869;864;5493.3;66.5;24260;0.9;3,0;2.0;0.0
2022/01/01 00:00:00;2022/12/31 23:59:59;ATMO NOUVELLE-AQUITAINE;FR75ZAG01;ZAG BORDEAUX;FR31007;BASSENS;Urbaine;O3;Fond;Oui;mesures fixes;Moy. annuelle;57.0;57.41009802763671;µg-m3;;;;R;1;44.900296;-0.515835;Bassens;33032;Bassens;58.5;8132;261;791.1;80.4;21280;26.6;6.3;1.0;0.0
2022/01/01 00:00:00;2022/12/31 23:59:59;ATMO NOUVELLE-AQUITAINE;FR75ZRE02;ZR NOUVELLE-AQUITAINE;FR31008;LE TEMPLE;Rurale régionale;O3;Fond;Oui;mesures fixes;Moy. annuelle;53.0;53.15667087300677;µg-m3;;;;R;1;44.86581;-0.94;Le Temple;33528;Le Temple;8.2;648;19;9,0;82,0;26430;2,0;16.3;0.0;0.0
2022/01/01 00:00:00;2022/12/31 23:59:59;ATMO NOUVELLE-AQUITAINE;FR75ZAG01;ZAG BORDEAUX;FR31010;AMBES;Périurbaine;O3;Fond;Oui;mesures fixes;Moy. annuelle;58.0;58.22704409738161;µg-m3;;;;R;1;45.014777;-0.533942;Ambès;33004;Ambès;38,0;3291;82;114.1;77,0;20490;40.9;4.3;0.0;0.0
2022/01/01 00:00:00;2022/12/31 23:59:59;ATMO NOUVELLE-AQUITAINE;FR75ZRE02;ZR NOUVELLE-AQUITAINE;FR31013;BILLERE;Urbaine;O3;Fond;Oui;mesures fixes;Moy. annuelle;55.0;54.66011911579414;µg-m3;;;;R;1;43.310797;-0.391543;Billère;64129;Billère;52.3;14037;320;3071.6;75.6;21380;6.9;4.7;0.0;0.0
2022/01/01 00:00:00;2022/12/31 23:59:59;ATMO NOUVELLE-AQUITAINE;FR75ZAG02;ZAG BAYONNE;FR31016;SAINT-CROUTS;Urbaine;O3;Fond;Oui;mesures fixes;Moy. annuelle;54.0;54.211410241722966;µg-m3;;;;R;1;43.47982;-1.489157;Bayonne;64102;Bayonne;43.7;53312;2754;2459,0;76,0;21780;4.8;4.2;20.0;0.0
2022/01/01 00:00:00;2022/12/31 23:59:59;ATMO NOUVELLE-AQUITAINE;FR75ZRE02;ZR NOUVELLE-AQUITAINE;FR31021;LABASTIDE CEZERACQ;Rurale près des villes;O3;Fond;Oui;mesures fixes;Moy. annuelle;49.0;49.35618883131835;µg-m3;;;;R;1;43.376279;-0.538206;Labastide-Cézéracq;64288;Labastide-Cézéracq;23.3;582;20;116.2;76.9;23900;8.3;50,0;0.0;0.0
2022/01/01 00:00:00;2022/12/31 23:59:59;ATMO NOUVELLE-AQUITAINE;FR75ZRE02;ZR NOUVELLE-AQUITAINE;FR31033;PERIGUEUX;Urbaine;O3;Fond;Oui;mesures fixes;Moy. annuelle;53.0;53.28114886731401;µg-m3;;;;R;1;45.189825;0.727184;Trélissac;24557;Trélissac;78.1;7319;335;319.9;76.6;23230;1.5;6.5;1.0;0.0
2022/01/01 00:00:00;2022/12/31 23:59:59;ATMO NOUVELLE-AQUITAINE;FR75ZRE02;ZR NOUVELLE-AQUITAINE;FR31036;DAX;Urbaine;O3;Fond;Oui;mesures fixes;Moy. annuelle;48.0;48.16467378685853;µg-m3;;;;R;1;43.704643;-1.038557;Dax;40088;Dax;39.7;21716;1190;1102.3;73.2;20570;7.4;3.1;18.0;3.0
2022/01/01 00:00:00;2022/12/31 23:59:59;ATMO NOUVELLE-AQUITAINE;FR75ZAG02;ZAG BAYONNE;FR31043;Biarritz-hippodrome;Périurbaine;O3;Fond;Oui;mesures fixes;Moy. annuelle;64.0;63.90196790441592;µg-m3;;;;R;1;43.470237;-1.553876;Biarritz;64122;Biarritz;67.4;25810;2065;2213.6;75.1;25640;5.5;4.1;48.0;1.0
2022/01/01 00:00:00;2022/12/31 23:59:59;ATMO BOURGOGNE-FRANCHE-COMTE;FR27ZAR04;ZAR CHALON;FR32002;Champforgueil;Périurbaine;O3;Fond;Oui;mesures fixes;Moy. annuelle;52.0;51.783821080180815;µg-m3;;;;R;1;46.821056;4.835083;Champforgeuil;71081;Champforgeuil;34,0;2616;97;358.8;75.5;20630;46.9;7,0;1.0;0.0
2022/01/01 00:00:00;2022/12/31 23:59:59;ATMO BOURGOGNE-FRANCHE-COMTE;FR27ZRE01;ZR BOURGOGNE-FRANCHE-COMTE;FR32005;Montceau-les-Mines 9me écluse;Urbaine;O3;Fond;Oui;mesures fixes;Moy. annuelle;52.0;51.65231550987415;µg-m3;;;;R;1;46.678785;4.366893;Montceau-les-Mines;71306;Montceau-les-Mines;48.9;16946;668;1019.6;67.8;19210;12.2;4.2;5.0;0.0
2022/01/01 00:00:00;2022/12/31 23:59:59;ATMO BOURGOGNE-FRANCHE-COMTE;FR27ZRE01;ZR BOURGOGNE-FRANCHE-COMTE;FR32006;Macon Paul Bert;Périurbaine;O3;Fond;Oui;mesures fixes;Moy. annuelle;56.0;55.7469566231344;µg-m3;;;;R;1;46.316172;4.839994;Mâcon;71270;Mâcon;39.4;34759;1789;1285.5;74,0;19320;8.3;2.4;15.0;0.0
2022/01/01 00:00:00;2022/12/31 23:59:59;ATMO AUVERGNE-RHÔNE-ALPES;FR84ZAR01;ZAR PAYS-DE-SAVOIE;FR33101;PASTEUR;Urbaine;O3;Fond;Oui;mesures indicatives;Moy. annuelle;49.0;49.14628605061798;µg-m3;;;;R;1;45.56472;5.928333;Chambéry;73065;Chambéry;40,0;60251;2774;2870.5;72.7;21950;8.4;2.8;19.0;0.0
2022/01/01 00:00:00;2022/12/31 23:59:59;ATMO AUVERGNE-RHÔNE-ALPES;FR84ZAR01;ZAR PAYS-DE-SAVOIE;FR33102;CHAMBERY LE HAUT;Urbaine;O3;Fond;Oui;mesures fixes;Moy. annuelle;59.0;58.64032962916716;µg-m3;;;;R;1;45.59667;5.918611;Chambéry;73065;Chambéry;40,0;60251;2774;2870.5;72.7;21950;8.4;2.8;19.0;0.0
2022/01/01 00:00:00;2022/12/31 23:59:59;ATMO AUVERGNE-RHÔNE-ALPES;FR84ZRE02;ZR AUVERGNE-RHONE-ALPES;FR33111;SAINT JEAN;Urbaine;O3;Fond;Oui;mesures indicatives;Moy. annuelle;55.0;55.21646816307831;µg-m3;;;;R;1;45.274723;6.349722;Saint-Jean-de-Maurienne;73248;Saint-Jean-de-Maurienne;38.6;7524;442;653.7;74.9;21840;20.2;6.3;5.0;1.0
2022/01/01 00:00:00;2022/12/31 23:59:59;ATMO AUVERGNE-RHÔNE-ALPES;FR84ZAR03;ZAR VALLEE-DE-L-ARVE;FR33120;CHAMONIX;Urbaine;O3;Fond;Oui;mesures indicatives;Moy. annuelle;39.0;38.7374381333962;µg-m3;;;;R;1;45.9225;6.87;Chamonix-Mont-Blanc;74056;Chamonix-Mont-Blanc;80.7;8673;925;74.4;84.1;24310;3.5;1.2;50.0;11.0
2022/01/01 00:00:00;2022/12/31 23:59:59;ATMO AUVERGNE-RHÔNE-ALPES;FR84ZAR04;ZAR VALLEE-DE-LA-TARANTAISE;FR33121;Albertville;Urbaine;O3;Fond;Oui;mesures fixes;Moy. annuelle;47.0;47.00900365630697;µg-m3;;;;R;1;45.675;6.389722;Albertville;73011;Albertville;48.5;19706;1041;1123.5;74.6;20680;6.6;7,0;8.0;1.0
2022/01/01 00:00:00;2022/12/31 23:59:59;ATMO AUVERGNE-RHÔNE-ALPES;FR84ZAR01;ZAR PAYS-DE-SAVOIE;FR33201;LOVERCHY;Urbaine;O3;Fond;Oui;mesures indicatives;Moy. annuelle;47.0;47.42262816051956;µg-m3;;;;R;1;45.89528;6.118333;Annecy;74010;Annecy;49.7;131272;6117;1961.3;79.6;26250;11,0;5.6;45.0;2.0
2022/01/01 00:00:00;2022/12/31 23:59:59;ATMO AUVERGNE-RHÔNE-ALPES;FR84ZAR01;ZAR PAYS-DE-SAVOIE;FR33202;NOVEL;Urbaine;O3;Fond;Oui;mesures fixes;Moy. annuelle;53.0;52.506361829025714;µg-m3;;;;R;1;45.916943;6.135556;Annecy;74010;Annecy;49.7;131272;6117;1961.3;79.6;26250;11,0;5.6;45.0;2.0
2022/01/01 00:00:00;2022/12/31 23:59:59;ATMO AUVERGNE-RHÔNE-ALPES;FR84ZAR01;ZAR PAYS-DE-SAVOIE;FR33211;ANNEMASSE;Urbaine;O3;Fond;Oui;mesures indicatives;Moy. annuelle;53.0;52.80526619702029;µg-m3;;;;R;1;46.19583;6.240556;Annemasse;74012;Annemasse;56.2;37595;1339;7549.2;77.5;22800;5.8;3.4;8.0;0.0
2022/01/01 00:00:00;2022/12/31 23:59:59;ATMO AUVERGNE-RHÔNE-ALPES;FR84ZAR01;ZAR PAYS-DE-SAVOIE;FR33212;GAILLARD;Urbaine;O3;Fond;Oui;mesures indicatives;Moy. annuelle;52.0;52.03665743305649;µg-m3;;;;R;1;46.193641;6.214534;Gaillard;74133;Gaillard;35.8;11054;218;2749.8;76.3;25070;34.6;2.5;3.0;0.0
2022/01/01 00:00:00;2022/12/31 23:59:59;ATMO AUVERGNE-RHÔNE-ALPES;FR84ZAR03;ZAR VALLEE-DE-L-ARVE;FR33220;PASSY;Périurbaine;O3;Fond;Oui;mesures fixes;Moy. annuelle;46.0;46.0336877314538;µg-m3;;;;R;1;45.92361;6.713611;Passy;74208;Passy;44.6;10852;326;135.6;80.2;25320;15.2;14.9;3.0;4.0
2022/01/01 00:00:00;2022/12/31 23:59:59;ATMO AUVERGNE-RHÔNE-ALPES;FR84ZRE02;ZR AUVERGNE-RHONE-ALPES;FR33302;St Germain/Rhône;Rurale près des villes;O3;Fond;Oui;mesures indicatives;Moy. annuelle;64.0;63.947452229299365;µg-m3;;;;R;1;46.072224;5.820833;Saint-Germain-sur-Rhône;74235;Saint-Germain-sur-Rhône;10.3;644;6;82,0;82.7;32240;0,0;55.2;0.0;0.0
2022/01/01 00:00:00;2022/12/31 23:59:59;ATMO AUVERGNE-RHÔNE-ALPES;FR84ZRE02;ZR AUVERGNE-RHONE-ALPES;FR33305;Bourg-en-Bresse;Urbaine;O3;Fond;Oui;mesures indicatives;Moy. annuelle;57.0;56.73389106854363;µg-m3;;;;R;1;46.211666;5.226389;Bourg-en-Bresse;1053;Bourg-en-Bresse;38.7;42065;2051;1763,0;70.5;20210;10.2;2.8;9.0;0.0
2022/01/01 00:00:00;2022/12/31 23:59:59;LIG'AIR;FR24ZAG02;ZAG ORLEANS;FR34017;Marigny-les-usages;Périurbaine;O3;Fond;Oui;mesures fixes;Moy. annuelle;56.0;56.01871786081603;µg-m3;;;;R;1;47.958972;2.009278;Marigny-les-Usages;45197;Marigny-les-Usages;60.6;1861;28;192.7;81.6;27110;2.4;6,0;0.0;0.0
2022/01/01 00:00:00;2022/12/31 23:59:59;LIG'AIR;FR24ZAG01;ZAG TOURS;FR34024;Joué lès Tours;Urbaine;O3;Fond;Oui;mesures fixes;Moy. annuelle;57.0;57.462014934508574;µg-m3;;;;R;1;47.344139;0.653778;Joué-lès-Tours;37122;Joué-lès-Tours;44.6;38432;928;1185.8;74.4;21520;14.6;14,0;9.0;0.0
2022/01/01 00:00:00;2022/12/31 23:59:59;LIG'AIR;FR24ZAG01;ZAG TOURS;FR34026;Tours péri-urbaine;Périurbaine;O3;Fond;Oui;mesures fixes;Moy. annuelle;60.0;59.841867224741215;µg-m3;;;;R;1;47.46925;0.717333;Chanceaux-sur-Choisille;37054;Chanceaux-sur-Choisille;58.1;3509;93;190,0;77.6;25710;2.1;30.6;0.0;0.0
2022/01/01 00:00:00;2022/12/31 23:59:59;LIG'AIR;FR24ZAG02;ZAG ORLEANS;FR34029;La_Source-CNRS;Urbaine;O3;Fond;Oui;mesures fixes;Moy. annuelle;60.0;59.98377288955434;µg-m3;;;;R;1;47.83775;1.944667;Orléans;45234;Orléans;36.4;116344;4150;4233.8;73.7;21370;2.9;3,0;22.0;0.0
2022/01/01 00:00:00;2022/12/31 23:59:59;LIG'AIR;FR24ZRE02;ZR CENTRE-VAL-DE-LOIRE;FR34032;Leblanc;Urbaine;O3;Fond;Oui;mesures fixes;Moy. annuelle;54.0;53.91488409456052;µg-m3;;;;R;1;47.082778;2.405333;Bourges;18033;Bourges;40.3;64238;2326;934.5;71.2;21730;13.8;3.4;17.0;1.0
2022/01/01 00:00:00;2022/12/31 23:59:59;LIG'AIR;FR24ZRE02;ZR CENTRE-VAL-DE-LOIRE;FR34038;Verneuil;Rurale nationale;O3;Fond;Oui;mesures fixes;Moy. annuelle;55.0;55.00267018106813;µg-m3;;;;R;1;46.814694;2.610069;Verneuil;18277;Verneuil;0,0;35;1;3.2;71.4;N/A - secret statistique;0,0;0,0;0.0;0.0
2022/01/01 00:00:00;2022/12/31 23:59:59;LIG'AIR;FR24ZRE02;ZR CENTRE-VAL-DE-LOIRE;FR34041;Fulbert;Urbaine;O3;Fond;Oui;mesures fixes;Moy. annuelle;57.0;56.78103586570408;µg-m3;;;;R;1;48.444417;1.510139;Chartres;28085;Chartres;43.5;37990;1870;2254.6;76.5;22770;16.4;1.4;16.0;0.0
2022/01/01 00:00:00;2022/12/31 23:59:59;LIG'AIR;FR24ZRE02;ZR CENTRE-VAL-DE-LOIRE;FR34043;Oysonville;Rurale régionale;O3;Fond;Oui;mesures fixes;Moy. annuelle;59.0;58.99215999999996;µg-m3;;;;R;1;48.391139;1.955611;Oysonville;28294;Oysonville;0,0;526;7;54.6;83.6;25140;0,0;37.5;0.0;0.0
2022/01/01 00:00:00;2022/12/31 23:59:59;LIG'AIR;FR24ZRE02;ZR CENTRE-VAL-DE-LOIRE;FR34046;Dreux Centre;Urbaine;O3;Fond;Oui;mesures fixes;Moy. annuelle;54.0;53.78845800826065;µg-m3;;;;R;1;48.729694;1.358472;Dreux;28134;Dreux;41,0;31205;1033;1285.7;68.5;18250;11.3;3.5;7.0;0.0
2022/01/01 00:00:00;2022/12/31 23:59:59;LIG'AIR;FR24ZRE02;ZR CENTRE-VAL-DE-LOIRE;FR34051;Chateauroux Sud;Urbaine;O3;Fond;Oui;mesures fixes;Moy. annuelle;61.0;60.6335092348285;µg-m3;;;;R;1;46.798278;1.693139;Châteauroux;36044;Châteauroux;36.1;43079;1550;1686.7;72.1;20300;10.4;2.4;8.0;1.0
2022/01/01 00:00:00;2022/12/31 23:59:59;LIG'AIR;FR24ZRE02;ZR CENTRE-VAL-DE-LOIRE;FR34054;Faverolles;Rurale régionale;O3;Fond;Oui;mesures fixes;Moy. annuelle;56.0;56.26392224128081;µg-m3;;;;R;1;47.170167;1.409694;Villentrois-Faverolles-en-Berry;36244;Villentrois-Faverolles-en-Berry;12.1;880;28;11.9;71.3;19680;0,0;22.7;0.0;0.0
2022/01/01 00:00:00;2022/12/31 23:59:59;LIG'AIR;FR24ZRE02;ZR CENTRE-VAL-DE-LOIRE;FR34056;Montierchaume;Périurbaine;O3;Fond;Oui;mesures fixes;Moy. annuelle;56.0;55.6324212936461;µg-m3;;;;R;1;46.864528;1.771944;Montierchaume;36128;Montierchaume;37.3;1637;70;44,0;78.9;22860;53,0;2,0;1.0;0.0
2022/01/01 00:00:00;2022/12/31 23:59:59;LIG'AIR;FR24ZAR02;ZAR BLOIS;FR34061;Blois nord;Urbaine;O3;Fond;Oui;mesures fixes;Moy. annuelle;61.0;60.70355794531525;µg-m3;;;;R;1;47.594256;1.302667;Blois;41018;Blois;39.6;47092;1968;1257.1;69.7;19360;10.1;3.9;21.0;0.0
2022/01/01 00:00:00;2022/12/31 23:59:59;LIG'AIR;FR24ZRE02;ZR CENTRE-VAL-DE-LOIRE;FR34065;Montargis Fond;Urbaine;O3;Fond;Oui;mesures fixes;Moy. annuelle;51.0;51.284276148695504;µg-m3;;;;R;1;47.996994;2.731511;Montargis;45208;Montargis;41.2;14819;722;3322.6;73.9;16670;2.3;4.5;6.0;1.0
2022/01/01 00:00:00;2022/12/31 23:59:59;ATMO NOUVELLE-AQUITAINE;FR75ZRE02;ZR NOUVELLE-AQUITAINE;FR35002;ST JUNIEN - Fontaine;Urbaine;O3;Fond;Oui;mesures fixes;Moy. annuelle;54.0;54.12081852573655;µg-m3;;;;R;1;45.884851;0.898431;Saint-Junien;87154;Saint-Junien;44.1;11382;479;200.3;75.8;22060;16,0;5.7;3.0;1.0
2022/01/01 00:00:00;2022/12/31 23:59:59;ATMO NOUVELLE-AQUITAINE;FR75ZRE02;ZR NOUVELLE-AQUITAINE;FR35004;BRIVE - Dalton;Urbaine;O3;Fond;Oui;mesures fixes;Moy. annuelle;47.0;46.80350714202763;µg-m3;;;;R;1;45.158738;1.537259;Brive-la-Gaillarde;19031;Brive-la-Gaillarde;44.8;46769;2265;962.5;73.5;21210;14.8;5.3;21.0;0.0
2022/01/01 00:00:00;2022/12/31 23:59:59;ATMO NOUVELLE-AQUITAINE;FR75ZRE02;ZR NOUVELLE-AQUITAINE;FR35005;GUERET - Nicolas;Urbaine;O3;Fond;Oui;mesures fixes;Moy. annuelle;60.0;60.11620156826567;µg-m3;;;;R;1;46.17362;1.873024;Guéret;23096;Guéret;38.6;12814;814;488.9;72.4;20830;3.6;2.2;5.0;2.0
2022/01/01 00:00:00;2022/12/31 23:59:59;ATMO NOUVELLE-AQUITAINE;FR75ZRE02;ZR NOUVELLE-AQUITAINE;FR35006;TULLE - Hugo;Urbaine;O3;Fond;Oui;mesures fixes;Moy. annuelle;44.0;43.80197950628784;µg-m3;;;;R;1;45.262665;1.762752;Tulle;19272;Tulle;28,0;13602;794;556.5;76.2;21340;4,0;4.2;4.0;0.0
2022/01/01 00:00:00;2022/12/31 23:59:59;ATMO NOUVELLE-AQUITAINE;FR75ZAR01;ZAR LIMOGES;FR35007;PALAIS S/ V.- Garros;Périurbaine;O3;Fond;Oui;mesures fixes;Moy. annuelle;57.0;57.44884333486026;µg-m3;;;;R;1;45.873311;1.307916;Le Palais-sur-Vienne;87113;Le Palais-sur-Vienne;27.1;5861;100;567.4;73.3;22960;20.8;10.1;0.0;0.0
2022/01/01 00:00:00;2022/12/31 23:59:59;ATMO NOUVELLE-AQUITAINE;FR75ZRE02;ZR NOUVELLE-AQUITAINE;FR35012;LA NOUAILLE - MERA;Rurale nationale;O3;Fond;Oui;mesures fixes;Moy. annuelle;76.0;75.76265544529585;µg-m3;;;;R;1;45.80509;2.062333;La Nouaille;23144;La Nouaille;0,0;228;5;4.7;77.1;19470;6.7;0,0;0.0;0.0
2022/01/01 00:00:00;2022/12/31 23:59:59;ATMO NOUVELLE-AQUITAINE;FR75ZAR01;ZAR LIMOGES;FR35027;LIMOGES - BERLAND;Urbaine;O3;Fond;Oui;mesures fixes;Moy. annuelle;54.0;54.48643562083996;µg-m3;;;;R;1;45.842204;1.259689;Limoges;87085;Limoges;39.3;129754;5023;1662.9;68.8;20590;9.2;3.9;35.0;0.0
2022/01/01 00:00:00;2022/12/31 23:59:59;ATMO AUVERGNE-RHÔNE-ALPES;FR84ZAR02;ZAR VALLEE-DU-RHONE;FR36001;Valence Périurb. Sud;Périurbaine;O3;Fond;Oui;mesures fixes;Moy. annuelle;57.0;57.49874668594841;µg-m3;;;;R;1;44.870243;4.876289;Portes-lès-Valence;26252;Portes-lès-Valence;47.1;10369;414;718.6;76.5;21680;24.3;9.1;2.0;0.0
2022/01/01 00:00:00;2022/12/31 23:59:59;ATMO AUVERGNE-RHÔNE-ALPES;FR84ZAR02;ZAR VALLEE-DU-RHONE;FR36019;Romans-sur-Isère;Urbaine;O3;Fond;Oui;mesures indicatives;Moy. annuelle;60.0;59.57628468653637;µg-m3;;;;R;1;45.0425;5.0443;Romans-sur-Isère;26281;Romans-sur-Isère;37.8;33139;1315;1001.8;74.2;20520;26.1;4.2;3.0;0.0
2022/01/01 00:00:00;2022/12/31 23:59:59;ATMO AUVERGNE-RHÔNE-ALPES;FR84ZRE02;ZR AUVERGNE-RHONE-ALPES;FR36021;Drôme Rurale Sud-SND;Rurale nationale;O3;Fond;Oui;mesures fixes;Moy. annuelle;61.0;60.98485645659388;µg-m3;;;;R;1;44.569443;5.278972;Saint-Nazaire-le-Désert;26321;Saint-Nazaire-le-Désert;35.5;205;10;4.4;67.2;16760;0,0;22.6;1.0;1.0
2022/01/01 00:00:00;2022/12/31 23:59:59;GWAD'AIR;FR01ZAG01;ZAG POINTE-A-PITRE;FR37001;ST de Baie mahault;Périurbaine;O3;Fond;Oui;estimation objective;Moy. annuelle;23.0;22.941315578004826;µg-m3;;;;R;1;16.257308;-61.591725;Baie-Mahault;97103;Baie-Mahault;62.3;30943;3556;672.7;73.9;N/A - résultat non disponible;10.7;10.4;0.0;0.0
2022/01/01 00:00:00;2022/12/31 23:59:59;GWAD'AIR;FR01ZAG01;ZAG POINTE-A-PITRE;FR37006;PTP-VICTOIRE;Urbaine;O3;Fond;Oui;mesures fixes;Moy. annuelle;29.0;29.04009728978458;µg/m3;;;;N;-1;16.23674;-61.534101;Pointe-à-Pitre;97120;Pointe-à-Pitre;50.9;14855;1188;5584.6;66.2;N/A - résultat non disponible;9.6;3.8;1.0;0.0
2022/01/01 00:00:00;2022/12/31 23:59:59;GWAD'AIR;FR01ZRE01;ZR GUADELOUPE;FR37010;BT_PICHON;Urbaine;O3;Fond;Oui;mesures fixes;Moy. annuelle;27.0;26.81573455270249;µg/m3;;;;R;1;15.994349;-61.727203;Basse-Terre;97105;Basse-Terre;20.8;9419;632;1629.6;66.7;N/A - résultat non disponible;2.8;0.7;0.0;0.0
2022/01/01 00:00:00;2022/12/31 23:59:59;ATMO GRAND EST;FR44ZRE01;ZR GRAND-EST;FR42011;Haguenau-Place marché aux bestiaux;Urbaine;O3;Fond;Oui;mesures fixes;Moy. annuelle;54.0;54.192386311437886;µg-m3;;;;R;1;48.818352;7.786409;Haguenau;67180;Haguenau;31.8;36070;1577;197.5;78.4;23110;26.3;4,0;9.0;1.0
2022/01/01 00:00:00;2022/12/31 23:59:59;ATMO OCCITANIE;FR76ZRE01;ZR OCCITANIE;FR50060;Montauban;Urbaine;O3;Fond;Oui;mesures fixes;Moy. annuelle;51.0;51.35487458589675;µg-m3;;;;R;1;44.01285657;1.37530522;Montauban;82121;Montauban;45.7;62487;3076;462.3;72.7;21630;7.8;5.7;12.0;0.0
2022/01/01 00:00:00;2022/12/31 23:59:59;ATMO BOURGOGNE-FRANCHE-COMTE;FR27ZAR03;ZAR BESANCON;FR82005;Montfaucon;Périurbaine;O3;Fond;Oui;mesures fixes;Moy. annuelle;75.0;75.40260839720855;µg-m3;;;;R;1;47.23461;6.076472;Montfaucon;25395;Montfaucon;43.7;1608;31;221.8;83,0;31270;17.2;9.2;0.0;0.0
2022/01/01 00:00:00;2022/12/31 23:59:59;ATMO BOURGOGNE-FRANCHE-COMTE;FR27ZAR03;ZAR BESANCON;FR82006;Besançon Prévoyance;Urbaine;O3;Fond;Oui;mesures fixes;Moy. annuelle;60.0;59.88251901359758;µg-m3;;;;R;1;47.2474;6.015419;Besançon;25056;Besançon;33.9;120057;4258;1845.6;68.3;20680;9,0;1.3;23.0;0.0
2022/01/01 00:00:00;2022/12/31 23:59:59;ATMO BOURGOGNE-FRANCHE-COMTE;FR27ZAR01;ZAR BELFORT-MONTBELIARD;FR82010;Montbéliard centre;Urbaine;O3;Fond;Oui;mesures fixes;Moy. annuelle;47.0;47.30459901613083;µg-m3;;;;R;1;47.510307;6.794;Montbéliard;25388;Montbéliard;38.4;25516;953;1699.9;67.5;18600;4.6;3.5;8.0;0.0
2022/01/01 00:00:00;2022/12/31 23:59:59;ATMO BOURGOGNE-FRANCHE-COMTE;FR27ZAR01;ZAR BELFORT-MONTBELIARD;FR82012;Dambenois Citoyen;Périurbaine;O3;Fond;Oui;mesures fixes;Moy. annuelle;55.0;54.970678869323386;µg-m3;;;;R;1;47.538193;6.868361;Dambenois;25188;Dambenois;71.7;727;11;221.6;76.6;27770;0,0;0,0;0.0;0.0
2022/01/01 00:00:00;2022/12/31 23:59:59;ATMO BOURGOGNE-FRANCHE-COMTE;FR27ZRE01;ZR BOURGOGNE-FRANCHE-COMTE;FR82030;Montandon Baresans;Rurale nationale;O3;Fond;Oui;mesures fixes;Moy. annuelle;57.0;56.89146959459456;µg-m3;;;;R;1;47.29464;6.825861;Montandon;25387;Montandon;46.2;372;7;29.3;76.4;29760;0,0;0,0;0.0;0.0
2022/01/01 00:00:00;2022/12/31 23:59:59;ATMO BOURGOGNE-FRANCHE-COMTE;FR27ZRE01;ZR BOURGOGNE-FRANCHE-COMTE;FR82040;Dole centre;Urbaine;O3;Fond;Oui;mesures fixes;Moy. annuelle;56.0;55.629413825315375;µg-m3;;;;R;1;47.09672;5.496389;Dole;39198;Dole;37.8;23784;1026;619.9;71.2;21070;13.9;3.3;9.0;1.0
2022/01/01 00:00:00;2022/12/31 23:59:59;ATMO BOURGOGNE-FRANCHE-COMTE;FR27ZRE01;ZR BOURGOGNE-FRANCHE-COMTE;FR82050;Lons-le-Saunier CV;Urbaine;O3;Fond;Oui;mesures fixes;Moy. annuelle;60.0;60.18374337845803;µg-m3;;;;R;1;46.671321;5.55662;Lons-le-Saunier;39300;Lons-le-Saunier;30.5;16942;1091;2206,0;70.6;20580;9.5;3.3;7.0;1.0
2022/01/01 00:00:00;2022/12/31 23:59:59;ATMO BOURGOGNE-FRANCHE-COMTE;FR27ZRE01;ZR BOURGOGNE-FRANCHE-COMTE;FR82060;Vesoul Pres Caillet;Urbaine;O3;Fond;Oui;mesures fixes;Moy. annuelle;57.0;56.85779458963782;µg-m3;;;;R;1;47.620022;6.157642;Vesoul;70550;Vesoul;31.2;15306;964;1687.5;71.7;19150;12.7;1.9;4.0;0.0
2022/01/01 00:00:00;2022/12/31 23:59:59;ATMO GRAND EST;FR44ZAG02;ZAG METZ;FR01011;Metz-Centre;Urbaine;NOX as NO2;Fond;Oui;mesures fixes;Moy. annuelle;21.0;21.22388214904686;µg-m3;99.0;100.0;99.0;R;1;49.119442;6.180833;Metz;57463;Metz;45.8;121695;5203;2901.6;70.9;20940;4.6;3.6;26.0;1.0
2022/01/01 00:00:00;2022/12/31 23:59:59;ATMO GRAND EST;FR44ZAG02;ZAG METZ;FR01012;Metz-Borny;Urbaine;NOX as NO2;Fond;Oui;mesures fixes;Moy. annuelle;20.0;20.23951715374834;µg-m3;99.0;100.0;99.0;R;1;49.110283;6.223336;Metz;57463;Metz;45.8;121695;5203;2901.6;70.9;20940;4.6;3.6;26.0;1.0
2022/01/01 00:00:00;2022/12/31 23:59:59;ATMO GRAND EST;FR44ZRE01;ZR GRAND-EST;FR01016;Atton;Rurale près des villes;NOX as NO2;Industrielle;Oui;mesures fixes;Moy. annuelle;19.0;19.494452167319512;µg-m3;94.0;96.0;90.0;R;1;48.886387;6.093611;Atton;54027;Atton;66.6;899;57;58.5;80.6;25000;12.9;14.8;0.0;0.0
2022/01/01 00:00:00;2022/12/31 23:59:59;ATMO GRAND EST;FR44ZAG02;ZAG METZ;FR01018;Scy-Chazelles;Périurbaine;NOX as NO2;Fond;Oui;mesures indicatives;Moy. annuelle;16.0;16.292532317636198;µg-m3;;;;R;1;49.107502;6.122775;Scy-Chazelles;57642;Scy-Chazelles;67.8;2665;80;589.6;75.3;28380;0.3;7.9;0.0;0.0
2022/01/01 00:00:00;2022/12/31 23:59:59;ATMO GRAND EST;FR44ZAG02;ZAG METZ;FR01019;Thionville-Piscine;Urbaine;NOX as NO2;Fond;Oui;mesures fixes;Moy. annuelle;17.0;17.48524085690615;µg-m3;98.0;98.0;96.0;R;1;49.36861;6.160831;Thionville;57672;Thionville;43.8;42778;1494;857.6;77,0;24850;6.4;2.9;8.0;1.0
2022/01/01 00:00:00;2022/12/31 23:59:59;ATMO GRAND EST;FR44ZAG02;ZAG METZ;FR01020;Thionville-Centre;Urbaine;NOX as NO2;Fond;Oui;mesures fixes;Moy. annuelle;28.0;27.546546896873544;µg-m3;98.0;100.0;98.0;R;1;49.358337;6.156942;Thionville;57672;Thionville;43.8;42778;1494;857.6;77,0;24850;6.4;2.9;8.0;1.0
2022/01/01 00:00:00;2022/12/31 23:59:59;ATMO GRAND EST;FR44ZAG02;ZAG METZ;FR01064;Metz- Pont Grilles;Urbaine;NOX as NO2;Trafic;Oui;mesures fixes;Moy. annuelle;44.0;44.26213569865232;µg-m3;99.0;100.0;99.0;R;1;49.12508;6.181219;Metz;57463;Metz;45.8;121695;5203;2901.6;70.9;20940;4.6;3.6;26.0;1.0
2022/01/01 00:00:00;2022/12/31 23:59:59;ATMO GRAND EST;FR44ZRE01;ZR GRAND-EST;FR01065;Belleville sur Meuse;Urbaine;NOX as NO2;Trafic;Oui;mesures indicatives;Moy. annuelle;34.0;34.1306970819824;µg-m3;;;;R;1;49.16778;5.387461;Verdun;55545;Verdun;36.4;16610;714;535.3;73.6;20350;11.8;2.2;10.0;1.0
2022/01/01 00:00:00;2022/12/31 23:59:59;ATMO SUD;FR93ZRE02;ZR PROVENCE-ALPES-COTE-D-AZUR;FR02022;Arles;Urbaine;NOX as NO2;Fond;Oui;mesures fixes;Moy. annuelle;20.0;20.45866434378621;µg-m3;99.0;100.0;98.0;R;1;43.675114;4.62921;Arles;13004;Arles;45.4;51156;2348;67.4;68.4;20060;4.7;4.7;43.0;5.0
2022/01/01 00:00:00;2022/12/31 23:59:59;ATMO SUD;FR93ZAG01;ZAG MARSEILLE-AIX;FR02041;SALON;Urbaine;NOX as NO2;Fond;Oui;mesures fixes;Moy. annuelle;17.0;16.92822311673377;µg-m3;99.0;100.0;99.0;R;1;43.639002;5.101097;Salon-de-Provence;13103;Salon-de-Provence;52.7;44553;1892;633.8;75.2;22400;5.4;5.1;16.0;2.0
2022/01/01 00:00:00;2022/12/31 23:59:59;ATMO SUD;FR93ZAG01;ZAG MARSEILLE-AIX;FR02043;Marignane;Urbaine;NOX as NO2;Fond;Oui;mesures fixes;Moy. annuelle;31.0;30.88245553643143;µg-m3;99.0;100.0;99.0;R;1;43.4165306;5.222281;Marignane;13054;Marignane;35.8;33164;1063;1432,0;74.7;21690;48,0;3.4;2.0;1.0
2022/01/01 00:00:00;2022/12/31 23:59:59;ATMO SUD;FR93ZAG01;ZAG MARSEILLE-AIX;FR03006;MARSEILLE RABATAU;Urbaine;NOX as NO2;Trafic;Oui;mesures fixes;Moy. annuelle;81.0;80.92409386617122;µg-m3;99.0;100.0;98.0;R;1;43.276451;5.39736;Marseille;13208;;;;;;;;;;;
2022/01/01 00:00:00;2022/12/31 23:59:59;ATMO SUD;FR93ZAG01;ZAG MARSEILLE-AIX;FR03014;MARSEILLE ST LOUIS;Urbaine;NOX as NO2;Fond;Oui;mesures fixes;Moy. annuelle;48.0;47.85513172966783;µg-m3;100.0;100.0;100.0;R;1;43.348048;5.360119;Marseille;13215;;;;;;;;;;;
2022/01/01 00:00:00;2022/12/31 23:59:59;ATMO SUD;FR93ZAG01;ZAG MARSEILLE-AIX;FR03021;AIX ROY RENE;Urbaine;NOX as NO2;Trafic;Oui;mesures fixes;Moy. annuelle;49.0;49.38379958725078;µg-m3;100.0;100.0;100.0;R;1;43.524075;5.448164;Aix-en-Provence;13001;Aix-en-Provence;60.9;147933;8570;795,0;70.3;25810;4.7;5.5;48.0;2.0
2022/01/01 00:00:00;2022/12/31 23:59:59;ATMO SUD;FR93ZAG01;ZAG MARSEILLE-AIX;FR03029;AIX CENTRE ECOLE ART;Urbaine;NOX as NO2;Fond;Oui;mesures fixes;Moy. annuelle;26.0;26.42345333799367;µg-m3;98.0;100.0;98.0;R;1;43.530285;5.440912;Aix-en-Provence;13001;Aix-en-Provence;60.9;147933;8570;795,0;70.3;25810;4.7;5.5;48.0;2.0
2022/01/01 00:00:00;2022/12/31 23:59:59;ATMO SUD;FR93ZAG01;ZAG MARSEILLE-AIX;FR03032;AUBAGNE LES PASSONS;Urbaine;NOX as NO2;Fond;Oui;mesures fixes;Moy. annuelle;19.0;19.129528943051408;µg-m3;97.0;100.0;97.0;R;1;43.293138;5.574184;Aubagne;13005;Aubagne;51.5;47724;2543;869.3;73.8;22550;15.4;5.3;5.0;1.0
2022/01/01 00:00:00;2022/12/31 23:59:59;ATMO SUD;FR93ZAG01;ZAG MARSEILLE-AIX;FR03043;MARSEILLE 5 AVENUES;Urbaine;NOX as NO2;Fond;Oui;mesures fixes;Moy. annuelle;30.0;30.055034270857995;µg-m3;97.0;100.0;97.0;R;1;43.305287;5.394716;Marseille;13204;;;;;;;;;;;
2022/01/01 00:00:00;2022/12/31 23:59:59;ATMO SUD;FR93ZAG03;ZAG TOULON;FR03060;LA SEYNE GENOUD;Urbaine;NOX as NO2;Fond;Oui;mesures fixes;Moy. annuelle;24.0;23.56290545203597;µg-m3;99.0;100.0;99.0;R;1;43.101565;5.875404;La Seyne-sur-Mer;83126;La Seyne-sur-Mer;46.9;62905;2031;2837.4;71.9;21400;7.6;9.3;12.0;4.0
2022/01/01 00:00:00;2022/12/31 23:59:59;ATMO SUD;FR93ZAG03;ZAG TOULON;FR03068;TOULON FOCH;Urbaine;NOX as NO2;Trafic;Oui;mesures fixes;Moy. annuelle;60.0;60.16525756525745;µg-m3;99.0;100.0;99.0;R;1;43.126821;5.921605;Toulon;83137;Toulon;31.7;180834;4967;4221.1;71.3;20960;7.2;2.5;17.0;0.0
2022/01/01 00:00:00;2022/12/31 23:59:59;ATMO SUD;FR93ZRE02;ZR PROVENCE-ALPES-COTE-D-AZUR;FR03070;ESTEREL;Périurbaine;NOX as NO2;Fond;Oui;mesures fixes;Moy. annuelle;11.0;11.354461821527142;µg-m3;99.0;100.0;99.0;R;1;43.437874;6.76839;Fréjus;83061;Fréjus;48.5;58499;2567;572,0;74.5;21960;5.3;10.4;19.0;19.0
2022/01/01 00:00:00;2022/12/31 23:59:59;ATMO SUD;FR93ZAG03;ZAG TOULON;FR03071;TOULON CLARET;Urbaine;NOX as NO2;Fond;Oui;mesures fixes;Moy. annuelle;31.0;31.26996738117429;µg-m3;98.0;100.0;98.0;R;1;43.131113;5.924184;Toulon;83137;Toulon;31.7;180834;4967;4221.1;71.3;20960;7.2;2.5;17.0;0.0
2022/01/01 00:00:00;2022/12/31 23:59:59;ATMO SUD;FR93ZAG04;ZAG AVIGNON;FR03080;AVIGNON   MAIRIE;Urbaine;NOX as NO2;Fond;Oui;mesures fixes;Moy. annuelle;20.0;19.6237101582206;µg-m3;100.0;100.0;100.0;R;1;43.949673;4.804341;Avignon;84007;Avignon;42.5;91760;5020;1413.6;68.3;17690;6.4;3,0;44.0;3.0
2022/01/01 00:00:00;2022/12/31 23:59:59;ATMO SUD;FR93ZAG04;ZAG AVIGNON;FR03084;LE PONTET;Périurbaine;NOX as NO2;Fond;Oui;mesures fixes;Moy. annuelle;26.0;25.86669793621016;µg-m3;98.0;99.0;97.0;R;1;43.960144;4.856731;Le Pontet;84092;Le Pontet;67.6;17985;870;1669.9;67.4;19590;9.9;4.4;10.0;1.0
2022/01/01 00:00:00;2022/12/31 23:59:59;ATMO SUD;FR93ZAG04;ZAG AVIGNON;FR03087;Avignon Semard;Urbaine;NOX as NO2;Trafic;Oui;mesures fixes;Moy. annuelle;46.0;46.4938759157509;µg-m3;100.0;100.0;100.0;R;1;43.93706;4.824909;Avignon;84007;Avignon;42.5;91760;5020;1413.6;68.3;17690;6.4;3,0;44.0;3.0
2022/01/01 00:00:00;2022/12/31 23:59:59;ATMO SUD;FR93ZAG04;ZAG AVIGNON;FR03091;Avignon Rocade De Gaulle;Urbaine;NOX as NO2;Trafic;Oui;mesures fixes;Moy. annuelle;110.0;110.26979166666678;µg-m3;99.0;27.0;26.0;N;-1;43.9314;4.826875;Avignon;84007;Avignon;42.5;91760;5020;1413.6;68.3;17690;6.4;3,0;44.0;3.0
2022/01/01 00:00:00;2022/12/31 23:59:59;AIRPARIF;FR11ZAG01;ZAG PARIS;FR04002;GENNEVILLIERS;Urbaine;NOX as NO2;Fond;Oui;mesures fixes;Moy. annuelle;37.0;36.94036359452302;µg-m3;99.0;100.0;99.0;R;1;48.930319;2.29435;Gennevilliers;92036;Gennevilliers;56.6;50874;1819;4370.6;73,0;18380;19.5;12.3;11.0;0.0
2022/01/01 00:00:00;2022/12/31 23:59:59;AIRPARIF;FR11ZAG01;ZAG PARIS;FR04004;PARIS 18eme;Urbaine;NOX as NO2;Fond;Oui;mesures fixes;Moy. annuelle;38.0;38.14121872381188;µg-m3;95.0;100.0;95.0;R;1;48.891666;2.346667;Paris;75118;;;;;;;;;;;
2022/01/01 00:00:00;2022/12/31 23:59:59;AIRPARIF;FR11ZAG01;ZAG PARIS;FR04012;Place Victor Basch;Urbaine;NOX as NO2;Trafic;Oui;mesures fixes;Moy. annuelle;117.0;117.1432594367882;µg-m3;95.0;100.0;95.0;R;1;48.827778;2.3275;Paris;75114;;;;;;;;;;;
2022/01/01 00:00:00;2022/12/31 23:59:59;AIRPARIF;FR11ZAG01;ZAG PARIS;FR04014;PARIS 12eme;Urbaine;NOX as NO2;Fond;Oui;mesures fixes;Moy. annuelle;34.0;33.504789368104376;µg-m3;91.0;100.0;91.0;R;1;48.837223;2.3939;Paris;75112;;;;;;;;;;;
2022/01/01 00:00:00;2022/12/31 23:59:59;AIRPARIF;FR11ZAG01;ZAG PARIS;FR04017;NEUILLY-SUR-SEINE;Urbaine;NOX as NO2;Fond;Oui;mesures fixes;Moy. annuelle;36.0;36.04192439862551;µg-m3;100.0;100.0;100.0;R;1;48.88139;2.278056;Neuilly-sur-Seine;92051;Neuilly-sur-Seine;78.4;59200;4885;15871.3;76.4;48010;6.9;1,0;9.0;0.0
2022/01/01 00:00:00;2022/12/31 23:59:59;AIRPARIF;FR11ZAG01;ZAG PARIS;FR04018;AUBERVILLIERS;Urbaine;NOX as NO2;Fond;Oui;mesures fixes;Moy. annuelle;40.0;40.33889838788463;µg-m3;93.0;100.0;93.0;R;1;48.9039;2.3847;Aubervilliers;93001;Aubervilliers;65.5;89489;3914;15536.3;69.5;15330;9.1;6.9;4.0;0.0
2022/01/01 00:00:00;2022/12/31 23:59:59;AIRPARIF;FR11ZAG01;ZAG PARIS;FR04024;GONESSE;Périurbaine;NOX as NO2;Fond;Oui;mesures fixes;Moy. annuelle;28.0;28.18010646915865;µg-m3;99.0;100.0;99.0;R;1;48.99083;2.444722;Gonesse;95277;Gonesse;51.1;26959;1057;1341.9;71.5;19140;8.1;8.1;6.0;0.0
2022/01/01 00:00:00;2022/12/31 23:59:59;AIRPARIF;FR11ZAG01;ZAG PARIS;FR04029;VERSAILLES;Périurbaine;NOX as NO2;Fond;Oui;mesures fixes;Moy. annuelle;23.0;22.765582785415493;µg-m3;95.0;100.0;95.0;R;1;48.799168;2.130556;Versailles;78646;Versailles;39.2;83918;3701;3203,0;76.1;33780;4.1;2.3;15.0;1.0
2022/01/01 00:00:00;2022/12/31 23:59:59;AIRPARIF;FR11ZAG01;ZAG PARIS;FR04031;Av Champs Elysees;Urbaine;NOX as NO2;Trafic;Oui;mesures fixes;Moy. annuelle;54.0;53.79200190430837;µg-m3;97.0;99.0;96.0;R;1;48.868772;2.311231;Paris;75108;;;;;;;;;;;
2022/01/01 00:00:00;2022/12/31 23:59:59;AIRPARIF;FR11ZAG01;ZAG PARIS;FR04034;VITRY-SUR-SEINE;Urbaine;NOX as NO2;Fond;Oui;mesures fixes;Moy. annuelle;29.0;29.19887776034756;µg-m3;95.0;100.0;95.0;R;1;48.775897;2.375788;Vitry-sur-Seine;94081;Vitry-sur-Seine;52,0;95282;2111;8164.7;72,0;19490;9.1;7.7;3.0;0.0
2022/01/01 00:00:00;2022/12/31 23:59:59;AIRPARIF;FR11ZAG01;ZAG PARIS;FR04037;PARIS 13eme;Urbaine;NOX as NO2;Fond;Oui;mesures fixes;Moy. annuelle;30.0;29.989017483378507;µg-m3;93.0;100.0;93.0;R;1;48.82861;2.360278;Paris;75113;;;;;;;;;;;
2022/01/01 00:00:00;2022/12/31 23:59:59;AIRPARIF;FR11ZRE01;ZR ILE-DE-FRANCE;FR04038;Zone Rurale SO;Rurale régionale;NOX as NO2;Fond;Oui;mesures fixes;Moy. annuelle;9.0;9.480174291939;µg-m3;94.0;100.0;94.0;R;1;48.581944;1.883333;Sonchamp;78601;Sonchamp;25.3;1664;39;35.8;79.2;30050;1.6;5.8;0.0;0.0
2022/01/01 00:00:00;2022/12/31 23:59:59;AIRPARIF;FR11ZAG01;ZAG PARIS;FR04051;ARGENTEUIL;Urbaine;NOX as NO2;Fond;Oui;mesures fixes;Moy. annuelle;34.0;33.534326074161214;µg-m3;97.0;100.0;97.0;R;1;48.95139;2.223611;Argenteuil;95018;Argenteuil;41.8;107135;3062;6221.5;73.2;19350;9.5;10.4;5.0;0.0
2022/01/01 00:00:00;2022/12/31 23:59:59;AIRPARIF;FR11ZAG01;ZAG PARIS;FR04055;PARIS 1er Les Halles;Urbaine;NOX as NO2;Fond;Oui;mesures fixes;Moy. annuelle;31.0;31.3361871750434;µg-m3;99.0;100.0;99.0;R;1;48.86212;2.344616;Paris;75101;;;;;;;;;;;
2022/01/01 00:00:00;2022/12/31 23:59:59;AIRPARIF;FR11ZAG01;ZAG PARIS;FR04058;Auto A1 -Saint-Denis;Urbaine;NOX as NO2;Trafic;Oui;mesures fixes;Moy. annuelle;140.0;140.45461629279785;µg-m3;97.0;100.0;97.0;R;1;48.925278;2.356667;Saint-Denis;93066;Saint-Denis;60.1;148907;4812;9442.4;69.5;16470;6.8;7.5;15.0;0.0
2022/01/01 00:00:00;2022/12/31 23:59:59;AIRPARIF;FR11ZAG01;ZAG PARIS;FR04059;SAINT-DENIS;Urbaine;NOX as NO2;Fond;Oui;mesures fixes;Moy. annuelle;36.0;36.33426066627717;µg-m3;98.0;100.0;98.0;R;1;48.93722;2.361667;Saint-Denis;93066;Saint-Denis;60.1;148907;4812;9442.4;69.5;16470;6.8;7.5;15.0;0.0
2022/01/01 00:00:00;2022/12/31 23:59:59;AIRPARIF;FR11ZAG01;ZAG PARIS;FR04060;PARIS 7eme;Urbaine;NOX as NO2;Fond;Oui;mesures fixes;Moy. annuelle;33.0;32.90388191538816;µg-m3;98.0;100.0;98.0;R;1;48.8572;2.2933;Paris;75107;;;;;;;;;;;
2022/01/01 00:00:00;2022/12/31 23:59:59;AIRPARIF;FR11ZAG01;ZAG PARIS;FR04063;MANTES-LA-JOLIE;Périurbaine;NOX as NO2;Fond;Oui;mesures fixes;Moy. annuelle;30.0;30.368701223063468;µg-m3;98.0;100.0;98.0;R;1;48.9964;1.7033;Mantes-la-Jolie;78361;Mantes-la-Jolie;42.8;44246;1120;4717.1;67.3;17310;3.8;2.1;1.0;0.0
2022/01/01 00:00:00;2022/12/31 23:59:59;AIRPARIF;FR11ZAG01;ZAG PARIS;FR04069;MELUN;Périurbaine;NOX as NO2;Fond;Oui;mesures fixes;Moy. annuelle;20.0;20.038918296893;µg-m3;99.0;100.0;99.0;R;1;48.54139;2.661389;Melun;77288;Melun;22.4;43685;1446;5433.5;74,0;19260;2,0;1.8;1.0;1.0
2022/01/01 00:00:00;2022/12/31 23:59:59;AIRPARIF;FR11ZAG01;ZAG PARIS;FR04071;Rue Bonaparte;Urbaine;NOX as NO2;Trafic;Oui;mesures fixes;Moy. annuelle;73.0;72.71220527045725;µg-m3;99.0;100.0;99.0;R;1;48.856388;2.335278;Paris;75106;;;;;;;;;;;
2022/01/01 00:00:00;2022/12/31 23:59:59;AIRPARIF;FR11ZAG01;ZAG PARIS;FR04098;LOGNES;Urbaine;NOX as NO2;Fond;Oui;mesures fixes;Moy. annuelle;25.0;25.060016429996377;µg-m3;97.0;100.0;97.0;R;1;48.84028;2.635278;Lognes;77258;Lognes;71.5;14678;461;4355.5;75.8;22290;8,0;5.6;1.0;0.0
2022/01/01 00:00:00;2022/12/31 23:59:59;AIRPARIF;FR11ZAG01;ZAG PARIS;FR04100;VILLEMOMBLE;Urbaine;NOX as NO2;Fond;Oui;mesures fixes;Moy. annuelle;32.0;32.1598145816642;µg-m3;100.0;100.0;100.0;R;1;48.881947;2.507222;Villemomble;93077;Villemomble;45.3;29973;823;7419.1;75.3;23920;2.5;12.7;2.0;0.0
2022/01/01 00:00:00;2022/12/31 23:59:59;AIRPARIF;FR11ZAG01;ZAG PARIS;FR04101;CHAMPIGNY-SUR-MARNE;Urbaine;NOX as NO2;Fond;Oui;mesures fixes;Moy. annuelle;32.0;31.728017539810693;µg-m3;99.0;100.0;99.0;R;1;48.816387;2.5175;Champigny-sur-Marne;94017;Champigny-sur-Marne;37.4;78367;1935;6935.1;73.9;21260;9.1;16.5;2.0;1.0
2022/01/01 00:00:00;2022/12/31 23:59:59;AIRPARIF;FR11ZAG01;ZAG PARIS;FR04118;Place de l'Opéra;Urbaine;NOX as NO2;Trafic;Oui;mesures fixes;Moy. annuelle;91.0;91.01895394584596;µg-m3;99.0;100.0;99.0;R;1;48.870274;2.3325;Paris;75102;;;;;;;;;;;
2022/01/01 00:00:00;2022/12/31 23:59:59;AIRPARIF;FR11ZAG01;ZAG PARIS;FR04122;RN6-MELUN;Périurbaine;NOX as NO2;Trafic;Oui;mesures fixes;Moy. annuelle;93.0;92.87936049867233;µg-m3;99.0;100.0;99.0;R;1;48.528057;2.653611;Melun;77288;Melun;22.4;43685;1446;5433.5;74,0;19260;2,0;1.8;1.0;1.0
2022/01/01 00:00:00;2022/12/31 23:59:59;AIRPARIF;FR11ZAG01;ZAG PARIS;FR04123;RN2-PANTIN;Urbaine;NOX as NO2;Trafic;Oui;mesures fixes;Moy. annuelle;90.0;89.72998397802672;µg-m3;100.0;100.0;100.0;R;1;48.90222;2.390833;Pantin;93055;Pantin;58.7;60954;2619;12166.5;76.5;19740;11.2;7.2;7.0;0.0
2022/01/01 00:00:00;2022/12/31 23:59:59;AIRPARIF;FR11ZAG01;ZAG PARIS;FR04131;Boulevard Haussmann;Urbaine;NOX as NO2;Trafic;Oui;mesures fixes;Moy. annuelle;80.0;80.0013037511438;µg-m3;100.0;100.0;100.0;R;1;48.873333;2.330278;Paris;75109;;;;;;;;;;;
2022/01/01 00:00:00;2022/12/31 23:59:59;AIRPARIF;FR11ZAG01;ZAG PARIS;FR04135;Boulevard Soult;Urbaine;NOX as NO2;Trafic;Oui;mesures fixes;Moy. annuelle;62.0;61.64858402351064;µg-m3;94.0;91.0;85.0;R;1;48.83796;2.408061;Paris;75112;;;;;;;;;;;
2022/01/01 00:00:00;2022/12/31 23:59:59;AIRPARIF;FR11ZAG01;ZAG PARIS;FR04141;Quai des Celestins;Urbaine;NOX as NO2;Trafic;Oui;mesures fixes;Moy. annuelle;90.0;90.07343637670698;µg-m3;95.0;100.0;95.0;R;1;48.85278;2.360556;Paris;75104;;;;;;;;;;;
2022/01/01 00:00:00;2022/12/31 23:59:59;AIRPARIF;FR11ZAG01;ZAG PARIS;FR04149;MONTGERON;Urbaine;NOX as NO2;Fond;Oui;mesures fixes;Moy. annuelle;25.0;24.906649118791364;µg-m3;100.0;100.0;100.0;R;1;48.7067;2.4572;Montgeron;91421;Montgeron;35.1;23890;559;2129.2;75.4;25500;11.6;7.5;0.0;0.0
2022/01/01 00:00:00;2022/12/31 23:59:59;AIRPARIF;FR11ZAG01;ZAG PARIS;FR04150;LA DEFENSE;Urbaine;NOX as NO2;Fond;Oui;mesures fixes;Moy. annuelle;0.0;0.0;µg-m3;0.0;1.0;0.0;N;-1;48.891388;2.240556;Puteaux;92062;Puteaux;84.5;44198;2896;13855.2;83.2;30980;5.3;1.9;12.0;0.0
2022/01/01 00:00:00;2022/12/31 23:59:59;AIRPARIF;FR11ZAG01;ZAG PARIS;FR04156;BOBIGNY;Urbaine;NOX as NO2;Fond;Oui;mesures fixes;Moy. annuelle;35.0;34.89156035328748;µg-m3;93.0;100.0;93.0;R;1;48.902504;2.4525;Bobigny;93008;Bobigny;23.4;55270;1840;8164,0;64.3;16330;3.4;4.4;3.0;0.0
2022/01/01 00:00:00;2022/12/31 23:59:59;AIRPARIF;FR11ZAG01;ZAG PARIS;FR04179;PARIS Stade Lenglen;Urbaine;NOX as NO2;Fond;Oui;mesures fixes;Moy. annuelle;24.0;24.079531748847128;µg-m3;97.0;100.0;97.0;R;1;48.830387;2.269889;Paris;75115;;;;;;;;;;;
2022/01/01 00:00:00;2022/12/31 23:59:59;AIRPARIF;FR11ZAG01;ZAG PARIS;FR04180;RN20 - MONTLHERY;Périurbaine;NOX as NO2;Trafic;Oui;mesures fixes;Moy. annuelle;177.0;177.21230363490344;µg-m3;100.0;100.0;100.0;R;1;48.64093;2.26872;Montlhéry;91425;Montlhéry;57.7;9238;324;2816.5;82.4;26310;2.8;18,0;0.0;0.0
