date_debut;date_fin;organisme;code_zas;nom_zas;code_site;nom_site;type_implantation;polluant;type_influence;reglementaire;type_evaluation;type_valeur;valeur;valeur_brute;unite;taux_saisie;couverture_temporelle;couverture_donnees;code_qualite;validite;latitude_site;longitude_site;ville;codgeo;latitude_commune;longitude_commune;nom_commune;part_commerce_transport_services_2023;population_2022;nb_etablissements_2023;densite_population_2022;taux_activite_2022;mediane_niveau_vie_2021;part_industrie_2023;part_construction_2023;nb_hotels_2022;nb_campings_2022
2022/01/01 00:00:00;2022/12/31 23:59:59;ATMO GRAND EST;FR44ZAG02;ZAG METZ;FR01011;Metz-Centre;Urbaine;O3;Fond;Oui;mesures fixes;Moy. annuelle;51.0;50.61413120988826;µg-m3;;;;R;1;49.119442;6.180833;Metz;57463;49.1081133279;6.1955245421;Metz;45.8;121695.0;5203.0;2901.6;70.9;20940.0;4.6;3.6;26.0;1.0
2022/01/01 00:00:00;2022/12/31 23:59:59;ATMO GRAND EST;FR44ZAG02;ZAG METZ;FR01011;Metz-Centre;Urbaine;O3;Fond;Oui;mesures fixes;Moy. annuelle;51.0;50.61413120988826;µg-m3;;;;R;1;49.119442;6.180833;Metz;57463;49.1081133279;6.1955245421;Metz;45.8;121695.0;5203.0;2901.6;70.9;20940.0;4.6;3.6;26.0;1.0
2022/01/01 00:00:00;2022/12/31 23:59:59;ATMO GRAND EST;FR44ZAG02;ZAG METZ;FR01011;Metz-Centre;Urbaine;O3;Fond;Oui;mesures fixes;Moy. annuelle;51.0;50.61413120988826;µg-m3;;;;R;1;49.119442;6.180833;Metz;57463;49.1081133279;6.1955245421;Metz;45.8;121695.0;5203.0;2901.6;70.9;20940.0;4.6;3.6;26.0;1.0
2022/01/01 00:00:00;2022/12/31 23:59:59;ATMO GRAND EST;FR44ZAG02;ZAG METZ;FR01018;Scy-Chazelles;Périurbaine;O3;Fond;Oui;mesures fixes;Moy. annuelle;54.0;53.926047444824746;µg-m3;;;;R;1;49.107502;6.122775;Scy-Chazelles;57642;49.1140417721;6.11984882666;Scy-Chazelles;67.8;2665.0;80.0;589.6;75.3;28380.0;0.3;7.9;0.0;0.0
2022/01/01 00:00:00;2022/12/31 23:59:59;ATMO GRAND EST;FR44ZAG02;ZAG METZ;FR01020;Thionville-Centre;Urbaine;O3;Fond;Oui;mesures fixes;Moy. annuelle;53.0;53.33349240236088;µg-m3;;;;R;1;49.358337;6.156942;Thionville;57672;49.3759716201;6.12928314217;Thionville;43.8;42778.0;1494.0;857.6;77.0;24850.0;6.4;2.9;8.0;1.0
2022/01/01 00:00:00;2022/12/31 23:59:59;ATMO GRAND EST;FR44ZAG02;ZAG METZ;FR01020;Thionville-Centre;Urbaine;O3;Fond;Oui;mesures fixes;Moy. annuelle;53.0;53.33349240236088;µg-m3;;;;R;1;49.358337;6.156942;Thionville;57672;49.3759716201;6.12928314217;Thionville;43.8;42778.0;1494.0;857.6;77.0;24850.0;6.4;2.9;8.0;1.0
2022/01/01 00:00:00;2022/12/31 23:59:59;ATMO GRAND EST;FR44ZAG02;ZAG METZ;FR01020;Thionville-Centre;Urbaine;O3;Fond;Oui;mesures fixes;Moy. annuelle;53.0;53.33349240236088;µg-m3;;;;R;1;49.358337;6.156942;Thionville;57672;49.3759716201;6.12928314217;Thionville;43.8;42778.0;1494.0;857.6;77.0;24850.0;6.4;2.9;8.0;1.0
2022/01/01 00:00:00;2022/12/31 23:59:59;ATMO GRAND EST;FR44ZAG02;ZAG METZ;FR01020;Thionville-Centre;Urbaine;O3;Fond;Oui;mesures fixes;Moy. annuelle;53.0;53.33349240236088;µg-m3;;;;R;1;49.358337;6.156942;Thionville;57672;49.3759716201;6.12928314217;Thionville;43.8;42778.0;1494.0;857.6;77.0;24850.0;6.4;2.9;8.0;1.0
2022/01/01 00:00:00;2022/12/31 23:59:59;ATMO GRAND EST;FR44ZAG02;ZAG METZ;FR01021;Thionville-Garche;Périurbaine;O3;Fond;Oui;mesures fixes;Moy. annuelle;57.0;56.85608928338337;µg-m3;;;;R;1;49.394444;6.201392;Thionville;57672;49.3759716201;6.12928314217;Thionville;43.8;42778.0;1494.0;857.6;77.0;24850.0;6.4;2.9;8.0;1.0
2022/01/01 00:00:00;2022/12/31 23:59:59;ATMO GRAND EST;FR44ZAG02;ZAG METZ;FR01021;Thionville-Garche;Périurbaine;O3;Fond;Oui;mesures fixes;Moy. annuelle;57.0;56.85608928338337;µg-m3;;;;R;1;49.394444;6.201392;Thionville;57672;49.3759716201;6.12928314217;Thionville;43.8;42778.0;1494.0;857.6;77.0;24850.0;6.4;2.9;8.0;1.0
2022/01/01 00:00:00;2022/12/31 23:59:59;ATMO GRAND EST;FR44ZAG02;ZAG METZ;FR01021;Thionville-Garche;Périurbaine;O3;Fond;Oui;mesures fixes;Moy. annuelle;57.0;56.85608928338337;µg-m3;;;;R;1;49.394444;6.201392;Thionville;57672;49.3759716201;6.12928314217;Thionville;43.8;42778.0;1494.0;857.6;77.0;24850.0;6.4;2.9;8.0;1.0
2022/01/01 00:00:00;2022/12/31 23:59:59;ATMO GRAND EST;FR44ZAG02;ZAG METZ;FR01021;Thionville-Garche;Périurbaine;O3;Fond;Oui;mesures fixes;Moy. annuelle;57.0;56.85608928338337;µg-m3;;;;R;1;49.394444;6.201392;Thionville;57672;49.3759716201;6.12928314217;Thionville;43.8;42778.0;1494.0;857.6;77.0;24850.0;6.4;2.9;8.0;1.0
2022/01/01 00:00:00;2022/12/31 23:59:59;ATMO SUD;FR93ZAG01;ZAG MARSEILLE-AIX;FR02001;Berre l'Etang;Périurbaine;O3;Fond;Oui;mesures fixes;Moy. annuelle;66.0;66.1762232862315;µg-m3;;;;R;1;43.486234;5.171939;Berre-l'Étang;13014;43.5036442498;5.1606136975;Berre-l'Étang;45.2;13941.0;461.0;319.5;74.1;20370.0;19.1;14.7;1.0;0.0
2022/01/01 00:00:00;2022/12/31 23:59:59;ATMO SUD;FR93ZAG01;ZAG MARSEILLE-AIX;FR02004;Martigues P. Central;Urbaine;O3;Fond;Oui;mesures fixes;Moy. annuelle;74.0;74.01480549199084;µg-m3;;;;R;1;43.416661;5.042731;Martigues;13056;43.3798920489;5.04945402314;Martigues;39.3;48818.0;1445.0;683.3;73.3;22570.0;16.1;4.8;11.0;7.0
2022/01/01 00:00:00;2022/12/31 23:59:59;ATMO SUD;FR93ZAG01;ZAG MARSEILLE-AIX;FR02004;Martigues P. Central;Urbaine;O3;Fond;Oui;mesures fixes;Moy. annuelle;74.0;74.01480549199084;µg-m3;;;;R;1;43.416661;5.042731;Martigues;13056;43.3798920489;5.04945402314;Martigues;39.3;48818.0;1445.0;683.3;73.3;22570.0;16.1;4.8;11.0;7.0
2022/01/01 00:00:00;2022/12/31 23:59:59;ATMO SUD;FR93ZAG01;ZAG MARSEILLE-AIX;FR02004;Martigues P. Central;Urbaine;O3;Fond;Oui;mesures fixes;Moy. annuelle;74.0;74.01480549199084;µg-m3;;;;R;1;43.416661;5.042731;Martigues;13056;43.3798920489;5.04945402314;Martigues;39.3;48818.0;1445.0;683.3;73.3;22570.0;16.1;4.8;11.0;7.0
2022/01/01 00:00:00;2022/12/31 23:59:59;ATMO SUD;FR93ZAG01;ZAG MARSEILLE-AIX;FR02004;Martigues P. Central;Urbaine;O3;Fond;Oui;mesures fixes;Moy. annuelle;74.0;74.01480549199084;µg-m3;;;;R;1;43.416661;5.042731;Martigues;13056;43.3798920489;5.04945402314;Martigues;39.3;48818.0;1445.0;683.3;73.3;22570.0;16.1;4.8;11.0;7.0
2022/01/01 00:00:00;2022/12/31 23:59:59;ATMO SUD;FR93ZAG01;ZAG MARSEILLE-AIX;FR02004;Martigues P. Central;Urbaine;O3;Fond;Oui;mesures fixes;Moy. annuelle;74.0;74.01480549199084;µg-m3;;;;R;1;43.416661;5.042731;Martigues;13056;43.3798920489;5.04945402314;Martigues;39.3;48818.0;1445.0;683.3;73.3;22570.0;16.1;4.8;11.0;7.0
2022/01/01 00:00:00;2022/12/31 23:59:59;ATMO SUD;FR93ZAG01;ZAG MARSEILLE-AIX;FR02012;Istres;Urbaine;O3;Fond;Oui;mesures fixes;Moy. annuelle;65.0;65.11177915545687;µg-m3;;;;R;1;43.506149;4.982898;Istres;13047;43.5502689105;4.9511813524;Istres;35.6;44044.0;989.0;387.3;77.0;22710.0;10.9;5.4;7.0;1.0
2022/01/01 00:00:00;2022/12/31 23:59:59;ATMO SUD;FR93ZAG01;ZAG MARSEILLE-AIX;FR02012;Istres;Urbaine;O3;Fond;Oui;mesures fixes;Moy. annuelle;65.0;65.11177915545687;µg-m3;;;;R;1;43.506149;4.982898;Istres;13047;43.5502689105;4.9511813524;Istres;35.6;44044.0;989.0;387.3;77.0;22710.0;10.9;5.4;7.0;1.0
2022/01/01 00:00:00;2022/12/31 23:59:59;ATMO SUD;FR93ZAG01;ZAG MARSEILLE-AIX;FR02021;Sausset les Pins;Périurbaine;O3;Fond;Oui;mesures fixes;Moy. annuelle;73.0;73.44703017343791;µg-m3;;;;R;1;43.331245;5.117696;Sausset-les-Pins;13104;43.3456690305;5.11765506999;Sausset-les-Pins;51.2;7556.0;183.0;624.5;74.8;28750.0;3.8;2.8;2.0;0.0
2022/01/01 00:00:00;2022/12/31 23:59:59;ATMO SUD;FR93ZRE02;ZR PROVENCE-ALPES-COTE-D-AZUR;FR02022;Arles;Urbaine;O3;Fond;Oui;mesures fixes;Moy. annuelle;62.0;62.26242816970285;µg-m3;;;;R;1;43.675114;4.62921;Arles;13004;43.5468692378;4.66215642574;Arles;45.4;51156.0;2348.0;67.4;68.4;20060.0;4.7;4.7;43.0;5.0
2022/01/01 00:00:00;2022/12/31 23:59:59;ATMO SUD;FR93ZRE02;ZR PROVENCE-ALPES-COTE-D-AZUR;FR02022;Arles;Urbaine;O3;Fond;Oui;mesures fixes;Moy. annuelle;62.0;62.26242816970285;µg-m3;;;;R;1;43.675114;4.62921;Arles;13004;43.5468692378;4.66215642574;Arles;45.4;51156.0;2348.0;67.4;68.4;20060.0;4.7;4.7;43.0;5.0
2022/01/01 00:00:00;2022/12/31 23:59:59;ATMO SUD;FR93ZRE02;ZR PROVENCE-ALPES-COTE-D-AZUR;FR02022;Arles;Urbaine;O3;Fond;Oui;mesures fixes;Moy. annuelle;62.0;62.26242816970285;µg-m3;;;;R;1;43.675114;4.62921;Arles;13004;43.5468692378;4.66215642574;Arles;45.4;51156.0;2348.0;67.4;68.4;20060.0;4.7;4.7;43.0;5.0
2022/01/01 00:00:00;2022/12/31 23:59:59;ATMO SUD;FR93ZRE02;ZR PROVENCE-ALPES-COTE-D-AZUR;FR02022;Arles;Urbaine;O3;Fond;Oui;mesures fixes;Moy. annuelle;62.0;62.26242816970285;µg-m3;;;;R;1;43.675114;4.62921;Arles;13004;43.5468692378;4.66215642574;Arles;45.4;51156.0;2348.0;67.4;68.4;20060.0;4.7;4.7;43.0;5.0
2022/01/01 00:00:00;2022/12/31 23:59:59;ATMO SUD;FR93ZRE02;ZR PROVENCE-ALPES-COTE-D-AZUR;FR02022;Arles;Urbaine;O3;Fond;Oui;mesures fixes;Moy. annuelle;62.0;62.26242816970285;µg-m3;;;;R;1;43.675114;4.62921;Arles;13004;43.5468692378;4.66215642574;Arles;45.4;51156.0;2348.0;67.4;68.4;20060.0;4.7;4.7;43.0;5.0
2022/01/01 00:00:00;2022/12/31 23:59:59;ATMO SUD;FR93ZRE02;ZR PROVENCE-ALPES-COTE-D-AZUR;FR02022;Arles;Urbaine;O3;Fond;Oui;mesures fixes;Moy. annuelle;62.0;62.26242816970285;µg-m3;;;;R;1;43.675114;4.62921;Arles;13004;43.5468692378;4.66215642574;Arles;45.4;51156.0;2348.0;67.4;68.4;20060.0;4.7;4.7;43.0;5.0
2022/01/01 00:00:00;2022/12/31 23:59:59;ATMO SUD;FR93ZRE02;ZR PROVENCE-ALPES-COTE-D-AZUR;FR02022;Arles;Urbaine;O3;Fond;Oui;mesures fixes;Moy. annuelle;62.0;62.26242816970285;µg-m3;;;;R;1;43.675114;4.62921;Arles;13004;43.5468692378;4.66215642574;Arles;45.4;51156.0;2348.0;67.4;68.4;20060.0;4.7;4.7;43.0;5.0
2022/01/01 00:00:00;2022/12/31 23:59:59;ATMO SUD;FR93ZAG01;ZAG MARSEILLE-AIX;FR02041;SALON;Urbaine;O3;Fond;Oui;mesures fixes;Moy. annuelle;65.0;65.00077972709552;µg-m3;;;;R;1;43.639002;5.101097;Salon-de-Provence;13103;43.6462885238;5.06814649576;Salon-de-Provence;52.7;44553.0;1892.0;633.8;75.2;22400.0;5.4;5.1;16.0;2.0
2022/01/01 00:00:00;2022/12/31 23:59:59;ATMO SUD;FR93ZRE02;ZR PROVENCE-ALPES-COTE-D-AZUR;FR03027;PLAN AUPS/STE  BAUME;Rurale près des villes;O3;Fond;Oui;mesures fixes;Moy. annuelle;84.0;83.55530468840013;µg-m3;;;;R;1;43.335201;5.727365;Plan-d'Aups-Sainte-Baume;83093;43.3337130548;5.73856018349;Plan-d'Aups-Sainte-Baume;28.4;2430.0;45.0;97.6;79.7;24970.0;2.8;11.4;2.0;0.0
2022/01/01 00:00:00;2022/12/31 23:59:59;ATMO SUD;FR93ZAG01;ZAG MARSEILLE-AIX;FR03032;AUBAGNE LES PASSONS;Urbaine;O3;Fond;Oui;mesures fixes;Moy. annuelle;67.0;66.54851303249511;µg-m3;;;;R;1;43.293138;5.574184;Aubagne;13005;43.2934843764;5.56331273477;Aubagne;51.5;47724.0;2543.0;869.3;73.8;22550.0;15.4;5.3;5.0;1.0
2022/01/01 00:00:00;2022/12/31 23:59:59;ATMO SUD;FR93ZAG01;ZAG MARSEILLE-AIX;FR03032;AUBAGNE LES PASSONS;Urbaine;O3;Fond;Oui;mesures fixes;Moy. annuelle;67.0;66.54851303249511;µg-m3;;;;R;1;43.293138;5.574184;Aubagne;13005;43.2934843764;5.56331273477;Aubagne;51.5;47724.0;2543.0;869.3;73.8;22550.0;15.4;5.3;5.0;1.0
2022/01/01 00:00:00;2022/12/31 23:59:59;ATMO SUD;FR93ZAG01;ZAG MARSEILLE-AIX;FR03037;VALLEE HUVEAUNE;Périurbaine;O3;Fond;Oui;mesures fixes;Moy. annuelle;54.0;53.81782339904344;µg-m3;;;;R;1;43.283341;5.511384;La Penne-sur-Huveaune;13070;43.2772079729;5.51850914394;La Penne-sur-Huveaune;67.0;6618.0;297.0;1859.0;76.1;24300.0;8.8;6.6;3.0;0.0
2022/01/01 00:00:00;2022/12/31 23:59:59;ATMO SUD;FR93ZAG01;ZAG MARSEILLE-AIX;FR03037;VALLEE HUVEAUNE;Périurbaine;O3;Fond;Oui;mesures fixes;Moy. annuelle;54.0;53.81782339904344;µg-m3;;;;R;1;43.283341;5.511384;La Penne-sur-Huveaune;13070;43.2772079729;5.51850914394;La Penne-sur-Huveaune;67.0;6618.0;297.0;1859.0;76.1;24300.0;8.8;6.6;3.0;0.0
2022/01/01 00:00:00;2022/12/31 23:59:59;ATMO SUD;FR93ZAG01;ZAG MARSEILLE-AIX;FR03043;MARSEILLE 5 AVENUES;Urbaine;O3;Fond;Oui;mesures fixes;Moy. annuelle;58.0;57.908698163335984;µg-m3;;;;R;1;43.305287;5.394716;Marseille;13204;43.306733355;5.40087488752;;;;;;;;;;;
2022/01/01 00:00:00;2022/12/31 23:59:59;ATMO SUD;FR93ZAG01;ZAG MARSEILLE-AIX;FR03048;AIX PLATANES;Périurbaine;O3;Fond;Oui;mesures fixes;Moy. annuelle;60.0;60.14906071019471;µg-m3;;;;R;1;43.555777;5.461232;Aix-en-Provence;13001;43.5360708378;5.39857444582;Aix-en-Provence;60.9;147933.0;8570.0;795.0;70.3;25810.0;4.7;5.5;48.0;2.0
2022/01/01 00:00:00;2022/12/31 23:59:59;ATMO SUD;FR93ZAG01;ZAG MARSEILLE-AIX;FR03048;AIX PLATANES;Périurbaine;O3;Fond;Oui;mesures fixes;Moy. annuelle;60.0;60.14906071019471;µg-m3;;;;R;1;43.555777;5.461232;Aix-en-Provence;13001;43.5360708378;5.39857444582;Aix-en-Provence;60.9;147933.0;8570.0;795.0;70.3;25810.0;4.7;5.5;48.0;2.0
2022/01/01 00:00:00;2022/12/31 23:59:59;ATMO SUD;FR93ZAG01;ZAG MARSEILLE-AIX;FR03048;AIX PLATANES;Périurbaine;O3;Fond;Oui;mesures fixes;Moy. annuelle;60.0;60.14906071019471;µg-m3;;;;R;1;43.555777;5.461232;Aix-en-Provence;13001;43.5360708378;5.39857444582;Aix-en-Provence;60.9;147933.0;8570.0;795.0;70.3;25810.0;4.7;5.5;48.0;2.0
2022/01/01 00:00:00;2022/12/31 23:59:59;ATMO SUD;FR93ZAG01;ZAG MARSEILLE-AIX;FR03048;AIX PLATANES;Périurbaine;O3;Fond;Oui;mesures fixes;Moy. annuelle;60.0;60.14906071019471;µg-m3;;;;R;1;43.555777;5.461232;Aix-en-Provence;13001;43.5360708378;5.39857444582;Aix-en-Provence;60.9;147933.0;8570.0;795.0;70.3;25810.0;4.7;5.5;48.0;2.0
2022/01/01 00:00:00;2022/12/31 23:59:59;ATMO SUD;FR93ZAG01;ZAG MARSEILLE-AIX;FR03048;AIX PLATANES;Périurbaine;O3;Fond;Oui;mesures fixes;Moy. annuelle;60.0;60.14906071019471;µg-m3;;;;R;1;43.555777;5.461232;Aix-en-Provence;13001;43.5360708378;5.39857444582;Aix-en-Provence;60.9;147933.0;8570.0;795.0;70.3;25810.0;4.7;5.5;48.0;2.0
2022/01/01 00:00:00;2022/12/31 23:59:59;ATMO SUD;FR93ZAG01;ZAG MARSEILLE-AIX;FR03048;AIX PLATANES;Périurbaine;O3;Fond;Oui;mesures fixes;Moy. annuelle;60.0;60.14906071019471;µg-m3;;;;R;1;43.555777;5.461232;Aix-en-Provence;13001;43.5360708378;5.39857444582;Aix-en-Provence;60.9;147933.0;8570.0;795.0;70.3;25810.0;4.7;5.5;48.0;2.0
2022/01/01 00:00:00;2022/12/31 23:59:59;ATMO SUD;FR93ZAG03;ZAG TOULON;FR03064;LA VALETTE/LA GARDE;Périurbaine;O3;Fond;Oui;mesures fixes;Moy. annuelle;29.0;29.494852941176475;µg-m3;;;;N;-1;43.135902;6.011513;La Valette-du-Var;83144;43.1499152044;5.99222538877;La Valette-du-Var;75.5;23660.0;1071.0;1526.5;76.6;23810.0;1.7;3.6;4.0;0.0
2022/01/01 00:00:00;2022/12/31 23:59:59;ATMO SUD;FR93ZRE02;ZR PROVENCE-ALPES-COTE-D-AZUR;FR03067;BRIGNOLES;Périurbaine;O3;Fond;Oui;mesures fixes;Moy. annuelle;66.0;66.12414385522847;µg-m3;;;;R;1;43.398731;6.075611;Brignoles;83023;43.3992941902;6.07740244296;Brignoles;51.0;17846.0;1028.0;253.0;72.2;19980.0;6.9;6.1;7.0;0.0
2022/01/01 00:00:00;2022/12/31 23:59:59;ATMO SUD;FR93ZAG03;ZAG TOULON;FR03069;HYERES;Urbaine;O3;Fond;Oui;mesures fixes;Moy. annuelle;75.0;75.29301960784322;µg-m3;;;;R;1;43.119737;6.131319;Hyères;83069;43.1018713534;6.18898508469;Hyères;46.9;55384.0;2340.0;418.4;72.6;22960.0;3.8;3.3;35.0;26.0
2022/01/01 00:00:00;2022/12/31 23:59:59;ATMO SUD;FR93ZAG03;ZAG TOULON;FR03069;HYERES;Urbaine;O3;Fond;Oui;mesures fixes;Moy. annuelle;75.0;75.29301960784322;µg-m3;;;;R;1;43.119737;6.131319;Hyères;83069;43.1018713534;6.18898508469;Hyères;46.9;55384.0;2340.0;418.4;72.6;22960.0;3.8;3.3;35.0;26.0
2022/01/01 00:00:00;2022/12/31 23:59:59;ATMO SUD;FR93ZAG03;ZAG TOULON;FR03069;HYERES;Urbaine;O3;Fond;Oui;mesures fixes;Moy. annuelle;75.0;75.29301960784322;µg-m3;;;;R;1;43.119737;6.131319;Hyères;83069;43.1018713534;6.18898508469;Hyères;46.9;55384.0;2340.0;418.4;72.6;22960.0;3.8;3.3;35.0;26.0
2022/01/01 00:00:00;2022/12/31 23:59:59;ATMO SUD;FR93ZAG03;ZAG TOULON;FR03069;HYERES;Urbaine;O3;Fond;Oui;mesures fixes;Moy. annuelle;75.0;75.29301960784322;µg-m3;;;;R;1;43.119737;6.131319;Hyères;83069;43.1018713534;6.18898508469;Hyères;46.9;55384.0;2340.0;418.4;72.6;22960.0;3.8;3.3;35.0;26.0
2022/01/01 00:00:00;2022/12/31 23:59:59;ATMO SUD;FR93ZAG03;ZAG TOULON;FR03069;HYERES;Urbaine;O3;Fond;Oui;mesures fixes;Moy. annuelle;75.0;75.29301960784322;µg-m3;;;;R;1;43.119737;6.131319;Hyères;83069;43.1018713534;6.18898508469;Hyères;46.9;55384.0;2340.0;418.4;72.6;22960.0;3.8;3.3;35.0;26.0
2022/01/01 00:00:00;2022/12/31 23:59:59;ATMO SUD;FR93ZAG03;ZAG TOULON;FR03069;HYERES;Urbaine;O3;Fond;Oui;mesures fixes;Moy. annuelle;75.0;75.29301960784322;µg-m3;;;;R;1;43.119737;6.131319;Hyères;83069;43.1018713534;6.18898508469;Hyères;46.9;55384.0;2340.0;418.4;72.6;22960.0;3.8;3.3;35.0;26.0
2022/01/01 00:00:00;2022/12/31 23:59:59;ATMO SUD;FR93ZAG03;ZAG TOULON;FR03069;HYERES;Urbaine;O3;Fond;Oui;mesures fixes;Moy. annuelle;75.0;75.29301960784322;µg-m3;;;;R;1;43.119737;6.131319;Hyères;83069;43.1018713534;6.18898508469;Hyères;46.9;55384.0;2340.0;418.4;72.6;22960.0;3.8;3.3;35.0;26.0
2022/01/01 00:00:00;2022/12/31 23:59:59;ATMO SUD;FR93ZAG03;ZAG TOULON;FR03069;HYERES;Urbaine;O3;Fond;Oui;mesures fixes;Moy. annuelle;75.0;75.29301960784322;µg-m3;;;;R;1;43.119737;6.131319;Hyères;83069;43.1018713534;6.18898508469;Hyères;46.9;55384.0;2340.0;418.4;72.6;22960.0;3.8;3.3;35.0;26.0
2022/01/01 00:00:00;2022/12/31 23:59:59;ATMO SUD;FR93ZAG03;ZAG TOULON;FR03069;HYERES;Urbaine;O3;Fond;Oui;mesures fixes;Moy. annuelle;75.0;75.29301960784322;µg-m3;;;;R;1;43.119737;6.131319;Hyères;83069;43.1018713534;6.18898508469;Hyères;46.9;55384.0;2340.0;418.4;72.6;22960.0;3.8;3.3;35.0;26.0
2022/01/01 00:00:00;2022/12/31 23:59:59;ATMO SUD;FR93ZAG03;ZAG TOULON;FR03069;HYERES;Urbaine;O3;Fond;Oui;mesures fixes;Moy. annuelle;75.0;75.29301960784322;µg-m3;;;;R;1;43.119737;6.131319;Hyères;83069;43.1018713534;6.18898508469;Hyères;46.9;55384.0;2340.0;418.4;72.6;22960.0;3.8;3.3;35.0;26.0
2022/01/01 00:00:00;2022/12/31 23:59:59;ATMO SUD;FR93ZRE02;ZR PROVENCE-ALPES-COTE-D-AZUR;FR03070;ESTEREL;Périurbaine;O3;Fond;Oui;mesures fixes;Moy. annuelle;62.0;61.98032503457819;µg-m3;;;;R;1;43.437874;6.76839;Fréjus;83061;43.4719558114;6.76361597424;Fréjus;48.5;58499.0;2567.0;572.0;74.5;21960.0;5.3;10.4;19.0;19.0
2022/01/01 00:00:00;2022/12/31 23:59:59;ATMO SUD;FR93ZRE02;ZR PROVENCE-ALPES-COTE-D-AZUR;FR03070;ESTEREL;Périurbaine;O3;Fond;Oui;mesures fixes;Moy. annuelle;62.0;61.98032503457819;µg-m3;;;;R;1;43.437874;6.76839;Fréjus;83061;43.4719558114;6.76361597424;Fréjus;48.5;58499.0;2567.0;572.0;74.5;21960.0;5.3;10.4;19.0;19.0
2022/01/01 00:00:00;2022/12/31 23:59:59;ATMO SUD;FR93ZAG03;ZAG TOULON;FR03071;TOULON CLARET;Urbaine;O3;Fond;Oui;mesures fixes;Moy. annuelle;65.0;65.25747636278747;µg-m3;;;;R;1;43.131113;5.924184;Toulon;83137;43.1361589728;5.93239634249;Toulon;31.7;180834.0;4967.0;4221.1;71.3;20960.0;7.2;2.5;17.0;0.0
2022/01/01 00:00:00;2022/12/31 23:59:59;ATMO SUD;FR93ZAG03;ZAG TOULON;FR03071;TOULON CLARET;Urbaine;O3;Fond;Oui;mesures fixes;Moy. annuelle;65.0;65.25747636278747;µg-m3;;;;R;1;43.131113;5.924184;Toulon;83137;43.1361589728;5.93239634249;Toulon;31.7;180834.0;4967.0;4221.1;71.3;20960.0;7.2;2.5;17.0;0.0
2022/01/01 00:00:00;2022/12/31 23:59:59;ATMO SUD;FR93ZAG03;ZAG TOULON;FR03071;TOULON CLARET;Urbaine;O3;Fond;Oui;mesures fixes;Moy. annuelle;65.0;65.25747636278747;µg-m3;;;;R;1;43.131113;5.924184;Toulon;83137;43.1361589728;5.93239634249;Toulon;31.7;180834.0;4967.0;4221.1;71.3;20960.0;7.2;2.5;17.0;0.0
2022/01/01 00:00:00;2022/12/31 23:59:59;ATMO SUD;FR93ZAG04;ZAG AVIGNON;FR03080;AVIGNON   MAIRIE;Urbaine;O3;Fond;Oui;mesures fixes;Moy. annuelle;61.0;60.93608010127745;µg-m3;;;;R;1;43.949673;4.804341;Avignon;84007;43.9352448339;4.84071572505;Avignon;42.5;91760.0;5020.0;1413.6;68.3;17690.0;6.4;3.0;44.0;3.0
2022/01/01 00:00:00;2022/12/31 23:59:59;ATMO SUD;FR93ZAG04;ZAG AVIGNON;FR03080;AVIGNON   MAIRIE;Urbaine;O3;Fond;Oui;mesures fixes;Moy. annuelle;61.0;60.93608010127745;µg-m3;;;;R;1;43.949673;4.804341;Avignon;84007;43.9352448339;4.84071572505;Avignon;42.5;91760.0;5020.0;1413.6;68.3;17690.0;6.4;3.0;44.0;3.0
2022/01/01 00:00:00;2022/12/31 23:59:59;ATMO SUD;FR93ZRE02;ZR PROVENCE-ALPES-COTE-D-AZUR;FR03086;APT;Périurbaine;O3;Fond;Oui;mesures fixes;Moy. annuelle;61.0;60.79608069164272;µg-m3;;;;R;1;43.88012;5.362038;Apt;84003;43.879393265;5.38921757843;Apt;40.3;10297.0;639.0;231.0;70.4;18860.0;21.6;8.4;8.0;3.0
2022/01/01 00:00:00;2022/12/31 23:59:59;ATMO SUD;FR93ZAG04;ZAG AVIGNON;FR03088;CARPENTRAS;Périurbaine;O3;Fond;Oui;mesures fixes;Moy. annuelle;64.0;63.67402656894178;µg-m3;;;;R;1;44.060347;5.067413;Carpentras;84031;44.0593802565;5.06134844776;Carpentras;41.0;30854.0;1363.0;813.7;72.4;18780.0;9.9;5.3;7.0;1.0
2022/01/01 00:00:00;2022/12/31 23:59:59;AIRPARIF;FR11ZAG01;ZAG PARIS;FR04004;PARIS 18eme;Urbaine;O3;Fond;Oui;mesures fixes;Moy. annuelle;50.0;50.06656990246169;µg-m3;;;;R;1;48.891666;2.346667;Paris;75118;48.8927350746;2.34871193387;;;;;;;;;;;
2022/01/01 00:00:00;2022/12/31 23:59:59;AIRPARIF;FR11ZAG01;ZAG PARIS;FR04017;NEUILLY-SUR-SEINE;Urbaine;O3;Fond;Oui;mesures fixes;Moy. annuelle;47.0;47.433165426445385;µg-m3;;;;R;1;48.88139;2.278056;Neuilly-sur-Seine;92051;48.8853719688;2.26642584746;Neuilly-sur-Seine;78.4;59200.0;4885.0;15871.3;76.4;48010.0;6.9;1.0;9.0;0.0
2022/01/01 00:00:00;2022/12/31 23:59:59;AIRPARIF;FR11ZAG01;ZAG PARIS;FR04023;CERGY-PONTOISE;Urbaine;O3;Fond;Oui;mesures fixes;Moy. annuelle;54.0;53.92962962962968;µg-m3;;;;R;1;49.04639;2.043056;Cergy;95127;49.0401131567;2.05082123731;Cergy;38.7;69578.0;2029.0;5972.4;71.2;20270.0;8.2;6.5;10.0;0.0
2022/01/01 00:00:00;2022/12/31 23:59:59;AIRPARIF;FR11ZAG01;ZAG PARIS;FR04023;CERGY-PONTOISE;Urbaine;O3;Fond;Oui;mesures fixes;Moy. annuelle;54.0;53.92962962962968;µg-m3;;;;R;1;49.04639;2.043056;Cergy;95127;49.0401131567;2.05082123731;Cergy;38.7;69578.0;2029.0;5972.4;71.2;20270.0;8.2;6.5;10.0;0.0
2022/01/01 00:00:00;2022/12/31 23:59:59;AIRPARIF;FR11ZAG01;ZAG PARIS;FR04023;CERGY-PONTOISE;Urbaine;O3;Fond;Oui;mesures fixes;Moy. annuelle;54.0;53.92962962962968;µg-m3;;;;R;1;49.04639;2.043056;Cergy;95127;49.0401131567;2.05082123731;Cergy;38.7;69578.0;2029.0;5972.4;71.2;20270.0;8.2;6.5;10.0;0.0
2022/01/01 00:00:00;2022/12/31 23:59:59;AIRPARIF;FR11ZAG01;ZAG PARIS;FR04029;VERSAILLES;Périurbaine;O3;Fond;Oui;mesures fixes;Moy. annuelle;50.0;49.58525685325969;µg-m3;;;;R;1;48.799168;2.130556;Versailles;78646;48.8025669671;2.11789297191;Versailles;39.2;83918.0;3701.0;3203.0;76.1;33780.0;4.1;2.3;15.0;1.0
2022/01/01 00:00:00;2022/12/31 23:59:59;AIRPARIF;FR11ZAG01;ZAG PARIS;FR04034;VITRY-SUR-SEINE;Urbaine;O3;Fond;Oui;mesures fixes;Moy. annuelle;51.0;50.974485405279765;µg-m3;;;;R;1;48.775897;2.375788;Vitry-sur-Seine;94081;48.7882828307;2.39412680533;Vitry-sur-Seine;52.0;95282.0;2111.0;8164.7;72.0;19490.0;9.1;7.7;3.0;0.0
2022/01/01 00:00:00;2022/12/31 23:59:59;AIRPARIF;FR11ZAG01;ZAG PARIS;FR04037;PARIS 13eme;Urbaine;O3;Fond;Oui;mesures fixes;Moy. annuelle;49.0;49.24784921369098;µg-m3;;;;R;1;48.82861;2.360278;Paris;75113;48.8287176845;2.36246822852;;;;;;;;;;;
2022/01/01 00:00:00;2022/12/31 23:59:59;AIRPARIF;FR11ZRE01;ZR ILE-DE-FRANCE;FR04038;Zone Rurale SO;Rurale régionale;O3;Fond;Oui;mesures fixes;Moy. annuelle;62.0;62.20814553990605;µg-m3;;;;R;1;48.581944;1.883333;Sonchamp;78601;48.5880930813;1.86888636176;Sonchamp;25.3;1664.0;39.0;35.8;79.2;30050.0;1.6;5.8;0.0;0.0
2022/01/01 00:00:00;2022/12/31 23:59:59;AIRPARIF;FR11ZRE01;ZR ILE-DE-FRANCE;FR04048;Zone Rurale Nord;Rurale régionale;O3;Fond;Oui;mesures fixes;Moy. annuelle;59.0;59.15997252118152;µg-m3;;;;R;1;49.100277;2.343889;;nan;;;;;;;;;;;;;
2022/01/01 00:00:00;2022/12/31 23:59:59;AIRPARIF;FR11ZAG01;ZAG PARIS;FR04049;LES ULIS;Périurbaine;O3;Fond;Oui;mesures fixes;Moy. annuelle;58.0;57.98939186099679;µg-m3;;;;R;1;48.679443;2.165556;Les Ulis;91692;48.680321482;2.18518955;Les Ulis;59.5;25633.0;761.0;4948.5;73.5;19950.0;18.4;9.9;6.0;0.0
2022/01/01 00:00:00;2022/12/31 23:59:59;AIRPARIF;FR11ZAG01;ZAG PARIS;FR04055;PARIS 1er Les Halles;Urbaine;O3;Fond;Oui;mesures fixes;Moy. annuelle;50.0;49.74853566096255;µg-m3;;;;R;1;48.86212;2.344616;Paris;75101;48.8626304852;2.33629344655;;;;;;;;;;;
2022/01/01 00:00:00;2022/12/31 23:59:59;AIRPARIF;FR11ZAG01;ZAG PARIS;FR04063;MANTES-LA-JOLIE;Périurbaine;O3;Fond;Oui;mesures fixes;Moy. annuelle;48.0;47.83496764917325;µg-m3;;;;N;-1;48.9964;1.7033;Mantes-la-Jolie;78361;48.9981665392;1.69337806821;Mantes-la-Jolie;42.8;44246.0;1120.0;4717.1;67.3;17310.0;3.8;2.1;1.0;0.0
2022/01/01 00:00:00;2022/12/31 23:59:59;AIRPARIF;FR11ZRE01;ZR ILE-DE-FRANCE;FR04066;Zone rurale Sud;Rurale régionale;O3;Fond;Oui;mesures fixes;Moy. annuelle;58.0;58.05160994614422;µg-m3;;;;R;1;48.364166;2.236944;;nan;;;;;;;;;;;;;
2022/01/01 00:00:00;2022/12/31 23:59:59;AIRPARIF;FR11ZAG01;ZAG PARIS;FR04069;MELUN;Périurbaine;O3;Fond;Oui;mesures fixes;Moy. annuelle;49.0;48.8131444496052;µg-m3;;;;R;1;48.54139;2.661389;Melun;77288;48.5444723553;2.65795821917;Melun;22.4;43685.0;1446.0;5433.5;74.0;19260.0;2.0;1.8;1.0;1.0
2022/01/01 00:00:00;2022/12/31 23:59:59;AIRPARIF;FR11ZAG01;ZAG PARIS;FR04098;LOGNES;Urbaine;O3;Fond;Oui;mesures fixes;Moy. annuelle;52.0;51.982586779699766;µg-m3;;;;R;1;48.84028;2.635278;Lognes;77258;48.8332806021;2.63346363172;Lognes;71.5;14678.0;461.0;4355.5;75.8;22290.0;8.0;5.6;1.0;0.0
2022/01/01 00:00:00;2022/12/31 23:59:59;AIRPARIF;FR11ZAG01;ZAG PARIS;FR04100;VILLEMOMBLE;Urbaine;O3;Fond;Oui;mesures fixes;Moy. annuelle;49.0;48.74306318681323;µg-m3;;;;R;1;48.881947;2.507222;Villemomble;93077;48.8848370021;2.50893406035;Villemomble;45.3;29973.0;823.0;7419.1;75.3;23920.0;2.5;12.7;2.0;0.0
2022/01/01 00:00:00;2022/12/31 23:59:59;AIRPARIF;FR11ZAG01;ZAG PARIS;FR04101;CHAMPIGNY-SUR-MARNE;Urbaine;O3;Fond;Oui;mesures fixes;Moy. annuelle;43.0;43.36696552790224;µg-m3;;;;N;-1;48.816387;2.5175;Champigny-sur-Marne;94017;48.817254364;2.51709815257;Champigny-sur-Marne;37.4;78367.0;1935.0;6935.1;73.9;21260.0;9.1;16.5;2.0;1.0
2022/01/01 00:00:00;2022/12/31 23:59:59;AIRPARIF;FR11ZAG01;ZAG PARIS;FR04101;CHAMPIGNY-SUR-MARNE;Urbaine;O3;Fond;Oui;mesures fixes;Moy. annuelle;43.0;43.36696552790224;µg-m3;;;;N;-1;48.816387;2.5175;Champigny-sur-Marne;94017;48.817254364;2.51709815257;Champigny-sur-Marne;37.4;78367.0;1935.0;6935.1;73.9;21260.0;9.1;16.5;2.0;1.0
2022/01/01 00:00:00;2022/12/31 23:59:59;AIRPARIF;FR11ZRE01;ZR ILE-DE-FRANCE;FR04142;Zone Rurale Nord-Est;Rurale régionale;O3;Fond;Oui;mesures fixes;Moy. annuelle;59.0;58.95040018294083;µg-m3;;;;R;1;49.028057;2.750278;Montgé-en-Goële;77308;49.0293871876;2.74391030915;Montgé-en-Goële;35.1;724.0;15.0;62.6;79.3;28440.0;2.7;24.3;0.0;0.0
2022/01/01 00:00:00;2022/12/31 23:59:59;AIRPARIF;FR11ZAG01;ZAG PARIS;FR04149;MONTGERON;Urbaine;O3;Fond;Oui;mesures fixes;Moy. annuelle;50.0;50.17278966029964;µg-m3;;;;R;1;48.7067;2.4572;Montgeron;91421;48.6951531801;2.46249881778;Montgeron;35.1;23890.0;559.0;2129.2;75.4;25500.0;11.6;7.5;0.0;0.0
2022/01/01 00:00:00;2022/12/31 23:59:59;AIRPARIF;FR11ZRE01;ZR ILE-DE-FRANCE;FR04158;Zone Rurale NO;Rurale régionale;O3;Fond;Oui;mesures fixes;Moy. annuelle;61.0;60.60446675900271;µg-m3;;;;R;1;49.063087;1.866381;Frémainville;95253;49.0662903393;1.86961416716;Frémainville;40.0;502.0;8.0;89.5;79.9;31060.0;0.0;20.0;0.0;0.0
2022/01/01 00:00:00;2022/12/31 23:59:59;AIRPARIF;FR11ZRE01;ZR ILE-DE-FRANCE;FR04181;RAMBOUILLET;Périurbaine;O3;Fond;Oui;mesures fixes;Moy. annuelle;57.0;56.93431350114405;µg-m3;;;;R;1;48.63373;1.830529;Rambouillet;78517;48.6539051954;1.82652871851;Rambouillet;43.1;27145.0;919.0;771.4;77.2;27990.0;11.3;3.6;6.0;1.0
2022/01/01 00:00:00;2022/12/31 23:59:59;AIRPARIF;FR11ZAG01;ZAG PARIS;FR04319;TREMBLAY-EN-FRANCE;Périurbaine;O3;Fond;Oui;mesures fixes;Moy. annuelle;45.0;44.64295147861034;µg-m3;;;;N;-1;48.95555;2.575278;Tremblay-en-France;93073;48.9784304121;2.55468501543;Tremblay-en-France;89.0;38210.0;1756.0;1702.8;74.8;21420.0;2.0;2.8;7.0;0.0
2022/01/01 00:00:00;2022/12/31 23:59:59;AIRPARIF;FR11ZRE01;ZR ILE-DE-FRANCE;FR04324;Zone Rurale Est;Rurale régionale;O3;Fond;Oui;mesures fixes;Moy. annuelle;53.0;52.83371095090973;µg-m3;;;;R;1;48.761665;3.058333;Beautheil-Saints;77433;48.7643724711;3.05922570921;Beautheil-Saints;33.6;2064.0;46.0;53.7;77.8;26270.0;5.7;15.6;0.0;0.0
2022/01/01 00:00:00;2022/12/31 23:59:59;AIRPARIF;FR11ZRE01;ZR ILE-DE-FRANCE;FR04328;Zone Rurale SE;Rurale régionale;O3;Fond;Oui;mesures fixes;Moy. annuelle;57.0;56.99833715596329;µg-m3;;;;R;1;48.3547;2.6453;Recloses;77386;48.3397926462;2.64268589454;Recloses;20.7;624.0;15.0;66.7;77.8;30980.0;24.1;10.3;0.0;0.0
2022/01/01 00:00:00;2022/12/31 23:59:59;ATMO NORMANDIE;FR28ZAR01;ZAR LE-HAVRE;FR05010;St Romain de Colbosc;Périurbaine;O3;Fond;Oui;mesures fixes;Moy. annuelle;59.0;59.02901881400325;µg-m3;;;;R;1;49.528927;0.358733;Saint-Romain-de-Colbosc;76647;49.5286231796;0.363829451738;Saint-Romain-de-Colbosc;60.6;4608.0;206.0;392.5;80.7;24950.0;13.4;7.0;0.0;0.0
2022/01/01 00:00:00;2022/12/31 23:59:59;ATMO NORMANDIE;FR28ZRE02;ZR NORMANDIE;FR05040;Honfleur Sce Tech.;Urbaine;O3;Fond;Oui;mesures fixes;Moy. annuelle;56.0;55.65958627065753;µg-m3;;;;R;1;49.415108;0.2437;Honfleur;14333;49.4129449727;0.237579361279;Honfleur;57.8;6751.0;599.0;493.9;74.9;20840.0;20.8;1.9;19.0;1.0
2022/01/01 00:00:00;2022/12/31 23:59:59;ATMO NORMANDIE;FR28ZRE02;ZR NORMANDIE;FR05040;Honfleur Sce Tech.;Urbaine;O3;Fond;Oui;mesures fixes;Moy. annuelle;56.0;55.65958627065753;µg-m3;;;;R;1;49.415108;0.2437;Honfleur;14333;49.4129449727;0.237579361279;Honfleur;57.8;6751.0;599.0;493.9;74.9;20840.0;20.8;1.9;19.0;1.0
2022/01/01 00:00:00;2022/12/31 23:59:59;ATMO NORMANDIE;FR28ZAR01;ZAR LE-HAVRE;FR05074;Le Havre Ec. Herriot;Urbaine;O3;Fond;Oui;mesures fixes;Moy. annuelle;60.0;60.111209097238245;µg-m3;;;;R;1;49.48963;0.100703;Le Havre;76351;49.498452502;0.140153719153;Le Havre;50.4;166462.0;4789.0;3545.5;70.7;20180.0;8.8;4.3;25.0;0.0
2022/01/01 00:00:00;2022/12/31 23:59:59;ATMO NORMANDIE;FR28ZAR01;ZAR LE-HAVRE;FR05074;Le Havre Ec. Herriot;Urbaine;O3;Fond;Oui;mesures fixes;Moy. annuelle;60.0;60.111209097238245;µg-m3;;;;R;1;49.48963;0.100703;Le Havre;76351;49.498452502;0.140153719153;Le Havre;50.4;166462.0;4789.0;3545.5;70.7;20180.0;8.8;4.3;25.0;0.0
2022/01/01 00:00:00;2022/12/31 23:59:59;ATMO NORMANDIE;FR28ZAR01;ZAR LE-HAVRE;FR05074;Le Havre Ec. Herriot;Urbaine;O3;Fond;Oui;mesures fixes;Moy. annuelle;60.0;60.111209097238245;µg-m3;;;;R;1;49.48963;0.100703;Le Havre;76351;49.498452502;0.140153719153;Le Havre;50.4;166462.0;4789.0;3545.5;70.7;20180.0;8.8;4.3;25.0;0.0
2022/01/01 00:00:00;2022/12/31 23:59:59;ATMO NORMANDIE;FR28ZAR01;ZAR LE-HAVRE;FR05074;Le Havre Ec. Herriot;Urbaine;O3;Fond;Oui;mesures fixes;Moy. annuelle;60.0;60.111209097238245;µg-m3;;;;R;1;49.48963;0.100703;Le Havre;76351;49.498452502;0.140153719153;Le Havre;50.4;166462.0;4789.0;3545.5;70.7;20180.0;8.8;4.3;25.0;0.0
2022/01/01 00:00:00;2022/12/31 23:59:59;ATMO NORMANDIE;FR28ZRE02;ZR NORMANDIE;FR05082;Touques;Périurbaine;O3;Fond;Oui;mesures fixes;Moy. annuelle;60.0;59.51125893077117;µg-m3;;;;R;1;49.348;0.109253;Touques;14699;49.353602734;0.112669944999;Touques;73.5;3857.0;161.0;474.4;79.4;21760.0;4.7;10.1;3.0;1.0
2022/01/01 00:00:00;2022/12/31 23:59:59;ATMO NORMANDIE;FR28ZRE02;ZR NORMANDIE;FR05087;Maison Parc Brotonne;Rurale régionale;O3;Fond;Oui;mesures fixes;Moy. annuelle;54.0;54.137158533738;µg-m3;;;;R;1;49.498417;0.758697;Notre-Dame-de-Bliquetuit;76473;49.4959539726;0.753080811666;Notre-Dame-de-Bliquetuit;0.0;824.0;13.0;84.3;81.2;24160.0;9.7;37.1;0.0;0.0
2022/01/01 00:00:00;2022/12/31 23:59:59;ATMO NORMANDIE;FR28ZRE02;ZR NORMANDIE;FR05088;Fécamp;Périurbaine;O3;Fond;Oui;mesures fixes;Moy. annuelle;54.0;53.8851416480546;µg-m3;;;;R;1;49.749942;0.415019;Fécamp;76259;49.7523245306;0.395297587433;Fécamp;33.4;17961.0;573.0;1191.8;68.5;19850.0;4.5;1.6;9.0;1.0
2022/01/01 00:00:00;2022/12/31 23:59:59;ATMO NORMANDIE;FR28ZAR01;ZAR LE-HAVRE;FR05090;Le Havre ville-haute;Urbaine;O3;Fond;Oui;mesures fixes;Moy. annuelle;62.0;61.55709006928408;µg-m3;;;;R;1;49.514686;0.100645;Le Havre;76351;49.498452502;0.140153719153;Le Havre;50.4;166462.0;4789.0;3545.5;70.7;20180.0;8.8;4.3;25.0;0.0
2022/01/01 00:00:00;2022/12/31 23:59:59;ATMO NORMANDIE;FR28ZAR01;ZAR LE-HAVRE;FR05090;Le Havre ville-haute;Urbaine;O3;Fond;Oui;mesures fixes;Moy. annuelle;62.0;61.55709006928408;µg-m3;;;;R;1;49.514686;0.100645;Le Havre;76351;49.498452502;0.140153719153;Le Havre;50.4;166462.0;4789.0;3545.5;70.7;20180.0;8.8;4.3;25.0;0.0
2022/01/01 00:00:00;2022/12/31 23:59:59;ATMO NORMANDIE;FR28ZAR01;ZAR LE-HAVRE;FR05090;Le Havre ville-haute;Urbaine;O3;Fond;Oui;mesures fixes;Moy. annuelle;62.0;61.55709006928408;µg-m3;;;;R;1;49.514686;0.100645;Le Havre;76351;49.498452502;0.140153719153;Le Havre;50.4;166462.0;4789.0;3545.5;70.7;20180.0;8.8;4.3;25.0;0.0
2022/01/01 00:00:00;2022/12/31 23:59:59;ATMO NORMANDIE;FR28ZAR01;ZAR LE-HAVRE;FR05090;Le Havre ville-haute;Urbaine;O3;Fond;Oui;mesures fixes;Moy. annuelle;62.0;61.55709006928408;µg-m3;;;;R;1;49.514686;0.100645;Le Havre;76351;49.498452502;0.140153719153;Le Havre;50.4;166462.0;4789.0;3545.5;70.7;20180.0;8.8;4.3;25.0;0.0
2022/01/01 00:00:00;2022/12/31 23:59:59;ATMO HAUTS DE FRANCE;FR32ZAG01;ZAG BLDV;FR06001;Valenciennes Acacias;Urbaine;O3;Fond;Oui;mesures fixes;Moy. annuelle;49.0;49.293628873157736;µg-m3;;;;R;1;50.35853;3.50804;Valenciennes;59606;50.3588666163;3.51567664819;Valenciennes;34.8;42979.0;1854.0;3109.9;68.4;20250.0;4.8;1.1;11.0;0.0
2022/01/01 00:00:00;2022/12/31 23:59:59;ATMO HAUTS DE FRANCE;FR32ZAG01;ZAG BLDV;FR06003;Douai Theuriet;Urbaine;O3;Fond;Oui;mesures fixes;Moy. annuelle;49.0;49.3639806079664;µg-m3;;;;N;-1;50.37822;3.06586;Douai;59178;50.3823195335;3.09145683114;Douai;37.8;39833.0;1436.0;2359.8;66.8;18440.0;9.9;3.6;4.0;0.0
2022/01/01 00:00:00;2022/12/31 23:59:59;ATMO HAUTS DE FRANCE;FR32ZAG01;ZAG BLDV;FR06003;Douai Theuriet;Urbaine;O3;Fond;Oui;mesures fixes;Moy. annuelle;49.0;49.3639806079664;µg-m3;;;;N;-1;50.37822;3.06586;Douai;59178;50.3823195335;3.09145683114;Douai;37.8;39833.0;1436.0;2359.8;66.8;18440.0;9.9;3.6;4.0;0.0
2022/01/01 00:00:00;2022/12/31 23:59:59;ATMO HAUTS DE FRANCE;FR32ZAG01;ZAG BLDV;FR06003;Douai Theuriet;Urbaine;O3;Fond;Oui;mesures fixes;Moy. annuelle;49.0;49.3639806079664;µg-m3;;;;N;-1;50.37822;3.06586;Douai;59178;50.3823195335;3.09145683114;Douai;37.8;39833.0;1436.0;2359.8;66.8;18440.0;9.9;3.6;4.0;0.0
2022/01/01 00:00:00;2022/12/31 23:59:59;ATMO HAUTS DE FRANCE;FR32ZRE01;ZR HAUTS-DE-FRANCE;FR06007;Maubeuge Joyeuse;Urbaine;O3;Fond;Oui;mesures fixes;Moy. annuelle;58.0;57.76896875419072;µg-m3;;;;R;1;50.27936;3.97691;Maubeuge;59392;50.283630719;3.96328053037;Maubeuge;24.2;28879.0;816.0;1532.0;63.6;16320.0;18.5;3.0;4.0;0.0
2022/01/01 00:00:00;2022/12/31 23:59:59;ATMO HAUTS DE FRANCE;FR32ZRE01;ZR HAUTS-DE-FRANCE;FR06007;Maubeuge Joyeuse;Urbaine;O3;Fond;Oui;mesures fixes;Moy. annuelle;58.0;57.76896875419072;µg-m3;;;;R;1;50.27936;3.97691;Maubeuge;59392;50.283630719;3.96328053037;Maubeuge;24.2;28879.0;816.0;1532.0;63.6;16320.0;18.5;3.0;4.0;0.0
2022/01/01 00:00:00;2022/12/31 23:59:59;ATMO HAUTS DE FRANCE;FR32ZAG01;ZAG BLDV;FR06011;Denain Villars;Périurbaine;O3;Fond;Oui;mesures fixes;Moy. annuelle;57.0;56.69379232505649;µg-m3;;;;R;1;50.32276;3.39593;Denain;59172;50.3299660733;3.3898623357;Denain;29.4;20622.0;476.0;1790.1;62.9;14890.0;6.6;6.0;0.0;0.0
2022/01/01 00:00:00;2022/12/31 23:59:59;ATMO HAUTS DE FRANCE;FR32ZRE01;ZR HAUTS-DE-FRANCE;FR06133;Cartignies;Rurale près des villes;O3;Fond;Oui;mesures fixes;Moy. annuelle;55.0;55.00976976489219;µg-m3;;;;R;1;50.09225;3.85003;Cartignies;59134;50.0779397385;3.84271561148;Cartignies;30.1;1234.0;29.0;46.7;77.4;21380.0;9.7;7.8;0.0;0.0
2022/01/01 00:00:00;2022/12/31 23:59:59;ATMO HAUTS DE FRANCE;FR32ZAG01;ZAG BLDV;FR06134;Saint Amand;Périurbaine;O3;Fond;Oui;mesures fixes;Moy. annuelle;48.0;47.65332537313432;µg-m3;;;;R;1;50.45647;3.42794;Saint-Amand-les-Eaux;59526;50.4401000981;3.44460708029;Saint-Amand-les-Eaux;33.3;16042.0;527.0;474.5;73.8;20980.0;30.4;3.2;3.0;1.0
2022/01/01 00:00:00;2022/12/31 23:59:59;ATMO AUVERGNE-RHÔNE-ALPES;FR84ZAG04;ZAG CLERMONT-FERRAND;FR07004;Montferrand;Urbaine;O3;Fond;Oui;mesures indicatives;Moy. annuelle;54.0;53.87752276867031;µg-m3;;;;R;1;45.79728;3.113833;Clermont-Ferrand;63113;45.7856492991;3.11554542903;Clermont-Ferrand;42.7;147751.0;5943.0;3462.6;67.8;20430.0;12.7;3.0;38.0;0.0
2022/01/01 00:00:00;2022/12/31 23:59:59;ATMO AUVERGNE-RHÔNE-ALPES;FR84ZAG04;ZAG CLERMONT-FERRAND;FR07004;Montferrand;Urbaine;O3;Fond;Oui;mesures indicatives;Moy. annuelle;54.0;53.87752276867031;µg-m3;;;;R;1;45.79728;3.113833;Clermont-Ferrand;63113;45.7856492991;3.11554542903;Clermont-Ferrand;42.7;147751.0;5943.0;3462.6;67.8;20430.0;12.7;3.0;38.0;0.0
2022/01/01 00:00:00;2022/12/31 23:59:59;ATMO AUVERGNE-RHÔNE-ALPES;FR84ZAG04;ZAG CLERMONT-FERRAND;FR07009;Jardin Lecoq;Urbaine;O3;Fond;Oui;mesures indicatives;Moy. annuelle;52.0;51.74425702811246;µg-m3;;;;R;1;45.772167;3.0875;Clermont-Ferrand;63113;45.7856492991;3.11554542903;Clermont-Ferrand;42.7;147751.0;5943.0;3462.6;67.8;20430.0;12.7;3.0;38.0;0.0
2022/01/01 00:00:00;2022/12/31 23:59:59;ATMO AUVERGNE-RHÔNE-ALPES;FR84ZAG04;ZAG CLERMONT-FERRAND;FR07009;Jardin Lecoq;Urbaine;O3;Fond;Oui;mesures indicatives;Moy. annuelle;52.0;51.74425702811246;µg-m3;;;;R;1;45.772167;3.0875;Clermont-Ferrand;63113;45.7856492991;3.11554542903;Clermont-Ferrand;42.7;147751.0;5943.0;3462.6;67.8;20430.0;12.7;3.0;38.0;0.0
2022/01/01 00:00:00;2022/12/31 23:59:59;ATMO AUVERGNE-RHÔNE-ALPES;FR84ZRE02;ZR AUVERGNE-RHONE-ALPES;FR07022;Paray le Fresil;Rurale régionale;O3;Fond;Oui;mesures fixes;Moy. annuelle;51.0;50.62246096043212;µg-m3;;;;R;1;46.652668;3.600667;Paray-le-Frésil;3203;;;Paray-le-Frésil;12.5;379.0;10.0;10.2;79.1;20240.0;0.0;0.0;0.0;0.0
2022/01/01 00:00:00;2022/12/31 23:59:59;ATMO AUVERGNE-RHÔNE-ALPES;FR84ZRE02;ZR AUVERGNE-RHONE-ALPES;FR07031;Rageade;Rurale régionale;O3;Fond;Oui;mesures indicatives;Moy. annuelle;81.0;80.77918034780492;µg-m3;;;;R;1;45.10472;3.277361;Rageade;15158;45.114689469;3.26841308091;Rageade;0.0;99.0;5.0;7.9;80.0;;0.0;0.0;0.0;0.0
2022/01/01 00:00:00;2022/12/31 23:59:59;ATMO AUVERGNE-RHÔNE-ALPES;FR84ZRE02;ZR AUVERGNE-RHONE-ALPES;FR07052;Aurillac-Lagarde;Urbaine;O3;Fond;Oui;mesures indicatives;Moy. annuelle;64.0;64.05578790995325;µg-m3;;;;R;1;44.92008;2.441082;Aurillac;15014;44.9245233686;2.44162453828;Aurillac;39.6;26189.0;1588.0;910.6;71.4;21860.0;9.2;4.7;12.0;1.0
2022/01/01 00:00:00;2022/12/31 23:59:59;ATMO AUVERGNE-RHÔNE-ALPES;FR84ZRE02;ZR AUVERGNE-RHONE-ALPES;FR07054;Le Puy-Causans;Urbaine;O3;Fond;Oui;mesures indicatives;Moy. annuelle;58.0;57.61237415125253;µg-m3;;;;R;1;45.039001;3.887001;Le Puy-en-Velay;43157;45.0276366659;3.89535229067;Le Puy-en-Velay;29.0;18989.0;1214.0;1131.0;72.5;20480.0;3.1;2.7;11.0;0.0
2022/01/01 00:00:00;2022/12/31 23:59:59;ATMO AUVERGNE-RHÔNE-ALPES;FR84ZRE02;ZR AUVERGNE-RHONE-ALPES;FR07056;Pays du Mezenc;Rurale régionale;O3;Fond;Oui;mesures fixes;Moy. annuelle;81.0;80.76260162601633;µg-m3;;;;R;1;44.98377;4.226006;Fay-sur-Lignon;43092;44.9856971989;4.21170048593;Fay-sur-Lignon;51.6;344.0;22.0;26.0;78.7;20110.0;9.4;7.8;1.0;1.0
2022/01/01 00:00:00;2022/12/31 23:59:59;ATMO AUVERGNE-RHÔNE-ALPES;FR84ZRE02;ZR AUVERGNE-RHONE-ALPES;FR07057;Moulins Centre;Urbaine;O3;Fond;Oui;mesures fixes;Moy. annuelle;54.0;54.10448295782791;µg-m3;;;;R;1;46.5619722;3.34063888888888;Yzeure;3321;;;Yzeure;35.2;12670.0;384.0;293.0;70.8;23540.0;9.7;7.2;1.0;0.0
2022/01/01 00:00:00;2022/12/31 23:59:59;ATMO AUVERGNE-RHÔNE-ALPES;FR84ZRE02;ZR AUVERGNE-RHONE-ALPES;FR07058;Montluçon;Urbaine;O3;Fond;Oui;mesures indicatives;Moy. annuelle;49.0;48.61806650668504;µg-m3;;;;R;1;46.340723;2.593945;Montluçon;3185;;;Montluçon;39.4;33317.0;1308.0;1611.9;71.9;19420.0;13.2;4.1;11.0;0.0
2022/01/01 00:00:00;2022/12/31 23:59:59;ATMO AUVERGNE-RHÔNE-ALPES;FR84ZRE02;ZR AUVERGNE-RHONE-ALPES;FR07059;Vichy;Urbaine;O3;Fond;Oui;mesures indicatives;Moy. annuelle;52.0;51.568973110802034;µg-m3;;;;R;1;46.130431;3.425694;Vichy;3310;;;Vichy;44.4;25702.0;1256.0;4393.5;67.9;20190.0;2.1;1.0;25.0;0.0
2022/01/01 00:00:00;2022/12/31 23:59:59;ATMO AUVERGNE-RHÔNE-ALPES;FR84ZAG04;ZAG CLERMONT-FERRAND;FR07060;Royat Périurbaine;Périurbaine;O3;Fond;Oui;mesures fixes;Moy. annuelle;64.0;63.7350948196112;µg-m3;;;;R;1;45.764111;3.046111;Royat;63308;45.7578437859;3.04076552996;Royat;60.6;4420.0;107.0;667.7;73.4;27950.0;0.9;0.8;4.0;1.0
2022/01/01 00:00:00;2022/12/31 23:59:59;ATMO AUVERGNE-RHÔNE-ALPES;FR84ZAG04;ZAG CLERMONT-FERRAND;FR07061;Riom Périurbaine;Périurbaine;O3;Fond;Oui;mesures indicatives;Moy. annuelle;48.0;47.503405286852;µg-m3;;;;R;1;45.89674;3.122254;Riom;63300;45.8942667778;3.13246469719;Riom;31.5;18680.0;730.0;584.3;72.8;23090.0;23.9;5.6;8.0;0.0
2022/01/01 00:00:00;2022/12/31 23:59:59;ATMO OCCITANIE;FR76ZAG02;ZAG MONTPELLIER;FR08016;Montpellier Prés d'Arènes;Urbaine;O3;Fond;Oui;mesures fixes;Moy. annuelle;55.0;55.17689060851216;µg-m3;;;;R;1;43.5915;3.88681;Montpellier;34172;43.6134409138;3.86851657896;Montpellier;46.8;307101.0;12224.0;5399.1;67.1;19670.0;3.9;3.0;57.0;0.0
2022/01/01 00:00:00;2022/12/31 23:59:59;ATMO OCCITANIE;FR76ZAG02;ZAG MONTPELLIER;FR08016;Montpellier Prés d'Arènes;Urbaine;O3;Fond;Oui;mesures fixes;Moy. annuelle;55.0;55.17689060851216;µg-m3;;;;R;1;43.5915;3.88681;Montpellier;34172;43.6134409138;3.86851657896;Montpellier;46.8;307101.0;12224.0;5399.1;67.1;19670.0;3.9;3.0;57.0;0.0
2022/01/01 00:00:00;2022/12/31 23:59:59;ATMO OCCITANIE;FR76ZAG02;ZAG MONTPELLIER;FR08016;Montpellier Prés d'Arènes;Urbaine;O3;Fond;Oui;mesures fixes;Moy. annuelle;55.0;55.17689060851216;µg-m3;;;;R;1;43.5915;3.88681;Montpellier;34172;43.6134409138;3.86851657896;Montpellier;46.8;307101.0;12224.0;5399.1;67.1;19670.0;3.9;3.0;57.0;0.0
2022/01/01 00:00:00;2022/12/31 23:59:59;ATMO OCCITANIE;FR76ZAG02;ZAG MONTPELLIER;FR08016;Montpellier Prés d'Arènes;Urbaine;O3;Fond;Oui;mesures fixes;Moy. annuelle;55.0;55.17689060851216;µg-m3;;;;R;1;43.5915;3.88681;Montpellier;34172;43.6134409138;3.86851657896;Montpellier;46.8;307101.0;12224.0;5399.1;67.1;19670.0;3.9;3.0;57.0;0.0
2022/01/01 00:00:00;2022/12/31 23:59:59;ATMO OCCITANIE;FR76ZAG02;ZAG MONTPELLIER;FR08017;Montpellier Périurbaine Sud (Lattes);Périurbaine;O3;Fond;Oui;mesures indicatives;Moy. annuelle;63.0;63.27293561724751;µg-m3;;;;R;1;43.5705;3.9118;Lattes;34129;43.5638594056;3.90226222861;Lattes;76.0;17592.0;1054.0;632.1;79.1;26460.0;4.0;6.7;7.0;6.0
2022/01/01 00:00:00;2022/12/31 23:59:59;ATMO OCCITANIE;FR76ZAG02;ZAG MONTPELLIER;FR08018;Montpellier St Gely;Périurbaine;O3;Fond;Oui;mesures fixes;Moy. annuelle;67.0;67.44010887190167;µg-m3;;;;R;1;43.6926;3.80021;Saint-Gély-du-Fesc;34255;43.6896523672;3.80969577473;Saint-Gély-du-Fesc;51.8;10530.0;351.0;637.8;75.6;29940.0;12.4;3.6;0.0;0.0
2022/01/01 00:00:00;2022/12/31 23:59:59;ATMO OCCITANIE;FR76ZRE01;ZR OCCITANIE;FR08022;Agathois-piscénois;Périurbaine;O3;Fond;Oui;mesures fixes;Moy. annuelle;67.0;67.48597637885578;µg-m3;;;;R;1;43.2875;3.50484;Agde;34003;43.309129116;3.48447903133;Agde;54.9;29612.0;1731.0;582.8;68.7;20410.0;3.7;5.1;29.0;24.0
2022/01/01 00:00:00;2022/12/31 23:59:59;ATMO OCCITANIE;FR76ZRE01;ZR OCCITANIE;FR08022;Agathois-piscénois;Périurbaine;O3;Fond;Oui;mesures fixes;Moy. annuelle;67.0;67.48597637885578;µg-m3;;;;R;1;43.2875;3.50484;Agde;34003;43.309129116;3.48447903133;Agde;54.9;29612.0;1731.0;582.8;68.7;20410.0;3.7;5.1;29.0;24.0
2022/01/01 00:00:00;2022/12/31 23:59:59;ATMO OCCITANIE;FR76ZRE01;ZR OCCITANIE;FR08023;Biterrois-Narbonnais;Rurale régionale;O3;Fond;Oui;mesures fixes;Moy. annuelle;68.0;67.71366619784344;µg-m3;;;;R;1;43.4068;3.18878;Corneilhan;34084;43.4019158731;3.19646909988;Corneilhan;17.4;1632.0;38.0;114.7;74.0;22500.0;4.3;18.6;0.0;0.0
2022/01/01 00:00:00;2022/12/31 23:59:59;ATMO OCCITANIE;FR76ZRE01;ZR OCCITANIE;FR08209;Gard Rhodanien2;Rurale près des villes;O3;Fond;Oui;mesures fixes;Moy. annuelle;64.0;64.47826490373451;µg-m3;;;;R;1;43.9426;4.67958;Saze;30315;43.9447000008;4.69826538851;Saze;41.6;2097.0;44.0;166.4;80.0;24560.0;4.1;31.0;0.0;0.0
2022/01/01 00:00:00;2022/12/31 23:59:59;ATMO OCCITANIE;FR76ZAR02;ZAR NIMES;FR08614;Nimes Gauzy;Urbaine;O3;Fond;Oui;mesures fixes;Moy. annuelle;60.0;60.46609795728868;µg-m3;;;;R;1;43.8344;4.3744;Nîmes;30189;43.844938394;4.34806796996;Nîmes;42.6;150444.0;6472.0;929.5;66.4;18760.0;3.7;4.5;31.0;1.0
2022/01/01 00:00:00;2022/12/31 23:59:59;ATMO OCCITANIE;FR76ZAR02;ZAR NIMES;FR08614;Nimes Gauzy;Urbaine;O3;Fond;Oui;mesures fixes;Moy. annuelle;60.0;60.46609795728868;µg-m3;;;;R;1;43.8344;4.3744;Nîmes;30189;43.844938394;4.34806796996;Nîmes;42.6;150444.0;6472.0;929.5;66.4;18760.0;3.7;4.5;31.0;1.0
2022/01/01 00:00:00;2022/12/31 23:59:59;ATMO OCCITANIE;FR76ZAR02;ZAR NIMES;FR08614;Nimes Gauzy;Urbaine;O3;Fond;Oui;mesures fixes;Moy. annuelle;60.0;60.46609795728868;µg-m3;;;;R;1;43.8344;4.3744;Nîmes;30189;43.844938394;4.34806796996;Nîmes;42.6;150444.0;6472.0;929.5;66.4;18760.0;3.7;4.5;31.0;1.0
2022/01/01 00:00:00;2022/12/31 23:59:59;ATMO OCCITANIE;FR76ZAR02;ZAR NIMES;FR08617;Nimes La Calmette;Périurbaine;O3;Fond;Oui;mesures fixes;Moy. annuelle;56.0;55.9969360308736;µg-m3;;;;R;1;43.9254;4.26581;La Calmette;30061;43.9263163144;4.26355372914;La Calmette;58.6;2572.0;98.0;231.7;76.1;21630.0;8.5;5.3;0.0;0.0
2022/01/01 00:00:00;2022/12/31 23:59:59;ATMO OCCITANIE;FR76ZAR01;ZAR PERPIGNAN;FR08712;Perpignan St Esteve;Périurbaine;O3;Fond;Oui;mesures fixes;Moy. annuelle;67.0;66.7531121281465;µg-m3;;;;R;1;42.7198;2.83988;Saint-Estève;66172;42.7151122221;2.84611914185;Saint-Estève;45.2;11673.0;407.0;1000.3;74.4;22170.0;4.4;15.1;0.0;0.0
2022/01/01 00:00:00;2022/12/31 23:59:59;ATMO OCCITANIE;FR76ZAR01;ZAR PERPIGNAN;FR08714;Perpignan Les Carmes;Urbaine;O3;Fond;Oui;mesures fixes;Moy. annuelle;61.0;61.08828442176076;µg-m3;;;;R;1;42.6955;2.90053;Perpignan;66136;42.6965954131;2.89936953979;Perpignan;50.0;120996.0;5714.0;1777.5;62.9;17380.0;5.0;3.9;32.0;1.0
2022/01/01 00:00:00;2022/12/31 23:59:59;ATMO OCCITANIE;FR76ZAR01;ZAR PERPIGNAN;FR08714;Perpignan Les Carmes;Urbaine;O3;Fond;Oui;mesures fixes;Moy. annuelle;61.0;61.08828442176076;µg-m3;;;;R;1;42.6955;2.90053;Perpignan;66136;42.6965954131;2.89936953979;Perpignan;50.0;120996.0;5714.0;1777.5;62.9;17380.0;5.0;3.9;32.0;1.0
2022/01/01 00:00:00;2022/12/31 23:59:59;ATMO NOUVELLE-AQUITAINE;FR75ZRE02;ZR NOUVELLE-AQUITAINE;FR09003;place de VERDUN;Urbaine;O3;Fond;Oui;mesures fixes;Moy. annuelle;57.0;57.321926444833565;µg-m3;;;;R;1;46.162647;-1.153684;La Rochelle;17300;46.1620643972;-1.17465702836;La Rochelle;40.4;79961.0;3854.0;2812.6;69.3;22200.0;8.8;1.8;42.0;1.0
2022/01/01 00:00:00;2022/12/31 23:59:59;ATMO NOUVELLE-AQUITAINE;FR75ZRE02;ZR NOUVELLE-AQUITAINE;FR09003;place de VERDUN;Urbaine;O3;Fond;Oui;mesures fixes;Moy. annuelle;57.0;57.321926444833565;µg-m3;;;;R;1;46.162647;-1.153684;La Rochelle;17300;46.1620643972;-1.17465702836;La Rochelle;40.4;79961.0;3854.0;2812.6;69.3;22200.0;8.8;1.8;42.0;1.0
2022/01/01 00:00:00;2022/12/31 23:59:59;ATMO NOUVELLE-AQUITAINE;FR75ZRE02;ZR NOUVELLE-AQUITAINE;FR09003;place de VERDUN;Urbaine;O3;Fond;Oui;mesures fixes;Moy. annuelle;57.0;57.321926444833565;µg-m3;;;;R;1;46.162647;-1.153684;La Rochelle;17300;46.1620643972;-1.17465702836;La Rochelle;40.4;79961.0;3854.0;2812.6;69.3;22200.0;8.8;1.8;42.0;1.0
2022/01/01 00:00:00;2022/12/31 23:59:59;ATMO NOUVELLE-AQUITAINE;FR75ZRE02;ZR NOUVELLE-AQUITAINE;FR09008;Aytré;Périurbaine;O3;Fond;Oui;mesures fixes;Moy. annuelle;60.0;59.50691085003455;µg-m3;;;;R;1;46.135134;-1.117086;Aytré;17028;46.134271716;-1.11454913295;Aytré;42.8;9759.0;536.0;798.6;78.4;22830.0;27.9;11.8;3.0;1.0
2022/01/01 00:00:00;2022/12/31 23:59:59;ATMO NOUVELLE-AQUITAINE;FR75ZRE02;ZR NOUVELLE-AQUITAINE;FR09015;Les Couronneries;Urbaine;O3;Fond;Oui;mesures fixes;Moy. annuelle;58.0;58.13418834296723;µg-m3;;;;R;1;46.586958;0.358458;Poitiers;86194;46.5839207726;0.359947653003;Poitiers;33.4;89472.0;3207.0;2124.7;62.7;20150.0;4.8;2.5;23.0;0.0
2022/01/01 00:00:00;2022/12/31 23:59:59;ATMO NOUVELLE-AQUITAINE;FR75ZRE02;ZR NOUVELLE-AQUITAINE;FR09103;Square Pablo Casals;Urbaine;O3;Fond;Oui;mesures fixes;Moy. annuelle;53.0;53.06249562273846;µg-m3;;;;R;1;45.647428;0.167162;Angoulême;16015;45.6472585146;0.14514490683;Angoulême;36.8;41423.0;1871.0;1895.8;72.6;19830.0;9.1;2.8;12.0;0.0
2022/01/01 00:00:00;2022/12/31 23:59:59;ATMO NOUVELLE-AQUITAINE;FR75ZRE02;ZR NOUVELLE-AQUITAINE;FR09302;Zoodyssée Chizé;Rurale régionale;O3;Fond;Oui;mesures fixes;Moy. annuelle;58.0;58.24894823918699;µg-m3;;;;R;1;46.143234;-0.395913;Villiers-en-Bois;79350;46.1418949381;-0.408815332834;Villiers-en-Bois;82.4;124.0;6.0;6.7;80.0;23150.0;3.7;0.0;0.0;0.0
2022/01/01 00:00:00;2022/12/31 23:59:59;ATMO NOUVELLE-AQUITAINE;FR75ZRE02;ZR NOUVELLE-AQUITAINE;FR09303;Niort Venise;Urbaine;O3;Fond;Oui;mesures fixes;Moy. annuelle;59.0;59.37772812793992;µg-m3;;;;R;1;46.320028;-0.482861;Niort;79191;46.328260242;-0.465353019369;Niort;56.3;60074.0;2412.0;880.9;76.6;23120.0;5.3;2.8;19.0;0.0
2022/01/01 00:00:00;2022/12/31 23:59:59;ATMO NOUVELLE-AQUITAINE;FR75ZRE02;ZR NOUVELLE-AQUITAINE;FR09303;Niort Venise;Urbaine;O3;Fond;Oui;mesures fixes;Moy. annuelle;59.0;59.37772812793992;µg-m3;;;;R;1;46.320028;-0.482861;Niort;79191;46.328260242;-0.465353019369;Niort;56.3;60074.0;2412.0;880.9;76.6;23120.0;5.3;2.8;19.0;0.0
2022/01/01 00:00:00;2022/12/31 23:59:59;ATMO NOUVELLE-AQUITAINE;FR75ZRE02;ZR NOUVELLE-AQUITAINE;FR09303;Niort Venise;Urbaine;O3;Fond;Oui;mesures fixes;Moy. annuelle;59.0;59.37772812793992;µg-m3;;;;R;1;46.320028;-0.482861;Niort;79191;46.328260242;-0.465353019369;Niort;56.3;60074.0;2412.0;880.9;76.6;23120.0;5.3;2.8;19.0;0.0
2022/01/01 00:00:00;2022/12/31 23:59:59;ATMO NOUVELLE-AQUITAINE;FR75ZRE02;ZR NOUVELLE-AQUITAINE;FR09303;Niort Venise;Urbaine;O3;Fond;Oui;mesures fixes;Moy. annuelle;59.0;59.37772812793992;µg-m3;;;;R;1;46.320028;-0.482861;Niort;79191;46.328260242;-0.465353019369;Niort;56.3;60074.0;2412.0;880.9;76.6;23120.0;5.3;2.8;19.0;0.0
2022/01/01 00:00:00;2022/12/31 23:59:59;ATMO NOUVELLE-AQUITAINE;FR75ZRE02;ZR NOUVELLE-AQUITAINE;FR09303;Niort Venise;Urbaine;O3;Fond;Oui;mesures fixes;Moy. annuelle;59.0;59.37772812793992;µg-m3;;;;R;1;46.320028;-0.482861;Niort;79191;46.328260242;-0.465353019369;Niort;56.3;60074.0;2412.0;880.9;76.6;23120.0;5.3;2.8;19.0;0.0
2022/01/01 00:00:00;2022/12/31 23:59:59;ATMO NOUVELLE-AQUITAINE;FR75ZRE02;ZR NOUVELLE-AQUITAINE;FR09304;AIRVAULT - Stade Laillé;Périurbaine;O3;Fond;Oui;mesures fixes;Moy. annuelle;61.0;60.57005523563296;µg-m3;;;;R;1;46.823796;-0.135634;Airvault;79005;46.8329725103;-0.135880248296;Airvault;33.1;3295.0;126.0;51.6;75.8;21280.0;40.2;3.9;1.0;2.0
2022/01/01 00:00:00;2022/12/31 23:59:59;ATMO NOUVELLE-AQUITAINE;FR75ZRE02;ZR NOUVELLE-AQUITAINE;FR09304;AIRVAULT - Stade Laillé;Périurbaine;O3;Fond;Oui;mesures fixes;Moy. annuelle;61.0;60.57005523563296;µg-m3;;;;R;1;46.823796;-0.135634;Airvault;79005;46.8329725103;-0.135880248296;Airvault;33.1;3295.0;126.0;51.6;75.8;21280.0;40.2;3.9;1.0;2.0
2022/01/01 00:00:00;2022/12/31 23:59:59;ATMO NOUVELLE-AQUITAINE;FR75ZRE02;ZR NOUVELLE-AQUITAINE;FR09304;AIRVAULT - Stade Laillé;Périurbaine;O3;Fond;Oui;mesures fixes;Moy. annuelle;61.0;60.57005523563296;µg-m3;;;;R;1;46.823796;-0.135634;Airvault;79005;46.8329725103;-0.135880248296;Airvault;33.1;3295.0;126.0;51.6;75.8;21280.0;40.2;3.9;1.0;2.0
2022/01/01 00:00:00;2022/12/31 23:59:59;ATMO NOUVELLE-AQUITAINE;FR75ZRE02;ZR NOUVELLE-AQUITAINE;FR09404;Poitiers Centre  Augouard;Urbaine;O3;Fond;Oui;mesures fixes;Moy. annuelle;50.0;50.368693044180446;µg-m3;;;;R;1;46.583998;0.345582;Poitiers;86194;46.5839207726;0.359947653003;Poitiers;33.4;89472.0;3207.0;2124.7;62.7;20150.0;4.8;2.5;23.0;0.0
2022/01/01 00:00:00;2022/12/31 23:59:59;ATMO HAUTS DE FRANCE;FR32ZAR01;ZAR COTE-D-OPALE;FR10017;St Pol mer - cheminots;Urbaine;O3;Fond;Oui;mesures fixes;Moy. annuelle;55.0;54.56162034299223;µg-m3;;;;R;1;51.032761;2.332358;Dunkerque;59183;51.0307229078;2.33752414095;Dunkerque;38.3;87013.0;2666.0;1982.5;71.2;20240.0;12.5;6.5;13.0;1.0
2022/01/01 00:00:00;2022/12/31 23:59:59;ATMO HAUTS DE FRANCE;FR32ZAR01;ZAR COTE-D-OPALE;FR10017;St Pol mer - cheminots;Urbaine;O3;Fond;Oui;mesures fixes;Moy. annuelle;55.0;54.56162034299223;µg-m3;;;;R;1;51.032761;2.332358;Dunkerque;59183;51.0307229078;2.33752414095;Dunkerque;38.3;87013.0;2666.0;1982.5;71.2;20240.0;12.5;6.5;13.0;1.0
2022/01/01 00:00:00;2022/12/31 23:59:59;ATMO HAUTS DE FRANCE;FR32ZAR01;ZAR COTE-D-OPALE;FR10017;St Pol mer - cheminots;Urbaine;O3;Fond;Oui;mesures fixes;Moy. annuelle;55.0;54.56162034299223;µg-m3;;;;R;1;51.032761;2.332358;Dunkerque;59183;51.0307229078;2.33752414095;Dunkerque;38.3;87013.0;2666.0;1982.5;71.2;20240.0;12.5;6.5;13.0;1.0
2022/01/01 00:00:00;2022/12/31 23:59:59;ATMO HAUTS DE FRANCE;FR32ZAR01;ZAR COTE-D-OPALE;FR10017;St Pol mer - cheminots;Urbaine;O3;Fond;Oui;mesures fixes;Moy. annuelle;55.0;54.56162034299223;µg-m3;;;;R;1;51.032761;2.332358;Dunkerque;59183;51.0307229078;2.33752414095;Dunkerque;38.3;87013.0;2666.0;1982.5;71.2;20240.0;12.5;6.5;13.0;1.0
2022/01/01 00:00:00;2022/12/31 23:59:59;ATMO HAUTS DE FRANCE;FR32ZAR01;ZAR COTE-D-OPALE;FR10017;St Pol mer - cheminots;Urbaine;O3;Fond;Oui;mesures fixes;Moy. annuelle;55.0;54.56162034299223;µg-m3;;;;R;1;51.032761;2.332358;Dunkerque;59183;51.0307229078;2.33752414095;Dunkerque;38.3;87013.0;2666.0;1982.5;71.2;20240.0;12.5;6.5;13.0;1.0
2022/01/01 00:00:00;2022/12/31 23:59:59;ATMO HAUTS DE FRANCE;FR32ZAR01;ZAR COTE-D-OPALE;FR10017;St Pol mer - cheminots;Urbaine;O3;Fond;Oui;mesures fixes;Moy. annuelle;55.0;54.56162034299223;µg-m3;;;;R;1;51.032761;2.332358;Dunkerque;59183;51.0307229078;2.33752414095;Dunkerque;38.3;87013.0;2666.0;1982.5;71.2;20240.0;12.5;6.5;13.0;1.0
2022/01/01 00:00:00;2022/12/31 23:59:59;ATMO HAUTS DE FRANCE;FR32ZAR01;ZAR COTE-D-OPALE;FR10017;St Pol mer - cheminots;Urbaine;O3;Fond;Oui;mesures fixes;Moy. annuelle;55.0;54.56162034299223;µg-m3;;;;R;1;51.032761;2.332358;Dunkerque;59183;51.0307229078;2.33752414095;Dunkerque;38.3;87013.0;2666.0;1982.5;71.2;20240.0;12.5;6.5;13.0;1.0
2022/01/01 00:00:00;2022/12/31 23:59:59;ATMO HAUTS DE FRANCE;FR32ZAR01;ZAR COTE-D-OPALE;FR10017;St Pol mer - cheminots;Urbaine;O3;Fond;Oui;mesures fixes;Moy. annuelle;55.0;54.56162034299223;µg-m3;;;;R;1;51.032761;2.332358;Dunkerque;59183;51.0307229078;2.33752414095;Dunkerque;38.3;87013.0;2666.0;1982.5;71.2;20240.0;12.5;6.5;13.0;1.0
2022/01/01 00:00:00;2022/12/31 23:59:59;ATMO HAUTS DE FRANCE;FR32ZAR01;ZAR COTE-D-OPALE;FR10017;St Pol mer - cheminots;Urbaine;O3;Fond;Oui;mesures fixes;Moy. annuelle;55.0;54.56162034299223;µg-m3;;;;R;1;51.032761;2.332358;Dunkerque;59183;51.0307229078;2.33752414095;Dunkerque;38.3;87013.0;2666.0;1982.5;71.2;20240.0;12.5;6.5;13.0;1.0
2022/01/01 00:00:00;2022/12/31 23:59:59;ATMO HAUTS DE FRANCE;FR32ZAR01;ZAR COTE-D-OPALE;FR10025;Sangatte;Périurbaine;O3;Fond;Oui;mesures fixes;Moy. annuelle;51.0;51.39657192720016;µg-m3;;;;R;1;50.94989;1.76917;Sangatte;62774;50.9410415453;1.76958356617;Sangatte;25.9;4755.0;82.0;333.0;74.1;23630.0;7.0;7.2;2.0;2.0
2022/01/01 00:00:00;2022/12/31 23:59:59;ATMO HAUTS DE FRANCE;FR32ZAR01;ZAR COTE-D-OPALE;FR10025;Sangatte;Périurbaine;O3;Fond;Oui;mesures fixes;Moy. annuelle;51.0;51.39657192720016;µg-m3;;;;R;1;50.94989;1.76917;Sangatte;62774;50.9410415453;1.76958356617;Sangatte;25.9;4755.0;82.0;333.0;74.1;23630.0;7.0;7.2;2.0;2.0
2022/01/01 00:00:00;2022/12/31 23:59:59;ATMO HAUTS DE FRANCE;FR32ZAR01;ZAR COTE-D-OPALE;FR10026;Calais Parmentier;Urbaine;O3;Fond;Oui;mesures fixes;Moy. annuelle;55.0;54.58805046706296;µg-m3;;;;R;1;50.9578;1.89008;Calais;62193;50.9502072754;1.87575566132;Calais;40.5;67585.0;1742.0;2017.5;67.7;18090.0;10.3;3.4;15.0;1.0
2022/01/01 00:00:00;2022/12/31 23:59:59;ATMO HAUTS DE FRANCE;FR32ZAR01;ZAR COTE-D-OPALE;FR10029;Cappelle la Grande;Périurbaine;O3;Fond;Oui;mesures fixes;Moy. annuelle;54.0;53.72838184931455;µg-m3;;;;N;-1;50.99594;2.36627;Cappelle-la-Grande;59131;50.9960740777;2.37003367458;Cappelle-la-Grande;42.8;7865.0;122.0;1440.5;72.9;20700.0;12.8;14.9;0.0;0.0
2022/01/01 00:00:00;2022/12/31 23:59:59;ATMO HAUTS DE FRANCE;FR32ZAR01;ZAR COTE-D-OPALE;FR10032;Outreau;Périurbaine;O3;Fond;Oui;mesures fixes;Moy. annuelle;60.0;60.11224489795924;µg-m3;;;;R;1;50.69435;1.57657;Outreau;62643;50.6980158519;1.59211375998;Outreau;43.6;13398.0;256.0;1889.7;72.1;19380.0;14.5;9.3;0.0;0.0
2022/01/01 00:00:00;2022/12/31 23:59:59;ATMO HAUTS DE FRANCE;FR32ZAR01;ZAR COTE-D-OPALE;FR10041;St Omer Ribot;Urbaine;O3;Fond;Oui;mesures fixes;Moy. annuelle;48.0;47.974393002563566;µg-m3;;;;N;-1;50.74823;2.25978;Saint-Omer;62765;50.7679781717;2.26334881482;Saint-Omer;37.1;14358.0;678.0;875.5;70.7;18120.0;6.6;3.1;6.0;0.0
2022/01/01 00:00:00;2022/12/31 23:59:59;ATMO HAUTS DE FRANCE;FR32ZRE01;ZR HAUTS-DE-FRANCE;FR10132;Campagne les B.;Rurale régionale;O3;Fond;Oui;mesures fixes;Moy. annuelle;63.0;63.01771391247538;µg-m3;;;;R;1;50.61048;1.99145;Campagne-lès-Boulonnais;62202;50.6189686189;1.99566804739;Campagne-lès-Boulonnais;5.0;675.0;13.0;50.8;78.4;20260.0;4.1;2.5;0.0;0.0
2022/01/01 00:00:00;2022/12/31 23:59:59;ATMO HAUTS DE FRANCE;FR32ZAG02;ZAG LILLE;FR11016;Marcq CTM;Urbaine;O3;Fond;Oui;mesures fixes;Moy. annuelle;52.0;51.54306122448979;µg-m3;;;;R;1;50.67003;3.07656;Marcq-en-Barœul;59378;50.6753348557;3.10093583816;Marcq-en-Barœul;72.5;39943.0;1610.0;2844.9;77.6;29490.0;5.5;6.0;4.0;0.0
2022/01/01 00:00:00;2022/12/31 23:59:59;ATMO HAUTS DE FRANCE;FR32ZAG02;ZAG LILLE;FR11025;Lille Fives;Urbaine;O3;Fond;Oui;mesures fixes;Moy. annuelle;47.0;46.829113924050645;µg-m3;;;;N;-1;50.62805;3.09031;Lille;59350;50.6317183168;3.04783272312;Lille;42.4;238695.0;10649.0;6853.1;67.4;20520.0;2.3;1.5;58.0;0.0
2022/01/01 00:00:00;2022/12/31 23:59:59;ATMO HAUTS DE FRANCE;FR32ZAG02;ZAG LILLE;FR11025;Lille Fives;Urbaine;O3;Fond;Oui;mesures fixes;Moy. annuelle;47.0;46.829113924050645;µg-m3;;;;N;-1;50.62805;3.09031;Lille;59350;50.6317183168;3.04783272312;Lille;42.4;238695.0;10649.0;6853.1;67.4;20520.0;2.3;1.5;58.0;0.0
2022/01/01 00:00:00;2022/12/31 23:59:59;ATMO HAUTS DE FRANCE;FR32ZAG02;ZAG LILLE;FR11025;Lille Fives;Urbaine;O3;Fond;Oui;mesures fixes;Moy. annuelle;47.0;46.829113924050645;µg-m3;;;;N;-1;50.62805;3.09031;Lille;59350;50.6317183168;3.04783272312;Lille;42.4;238695.0;10649.0;6853.1;67.4;20520.0;2.3;1.5;58.0;0.0
2022/01/01 00:00:00;2022/12/31 23:59:59;ATMO HAUTS DE FRANCE;FR32ZAG02;ZAG LILLE;FR11025;Lille Fives;Urbaine;O3;Fond;Oui;mesures fixes;Moy. annuelle;47.0;46.829113924050645;µg-m3;;;;N;-1;50.62805;3.09031;Lille;59350;50.6317183168;3.04783272312;Lille;42.4;238695.0;10649.0;6853.1;67.4;20520.0;2.3;1.5;58.0;0.0
2022/01/01 00:00:00;2022/12/31 23:59:59;ATMO HAUTS DE FRANCE;FR32ZAG02;ZAG LILLE;FR11025;Lille Fives;Urbaine;O3;Fond;Oui;mesures fixes;Moy. annuelle;47.0;46.829113924050645;µg-m3;;;;N;-1;50.62805;3.09031;Lille;59350;50.6317183168;3.04783272312;Lille;42.4;238695.0;10649.0;6853.1;67.4;20520.0;2.3;1.5;58.0;0.0
2022/01/01 00:00:00;2022/12/31 23:59:59;ATMO HAUTS DE FRANCE;FR32ZAG02;ZAG LILLE;FR11026;Halluin stade;Périurbaine;O3;Fond;Oui;mesures fixes;Moy. annuelle;48.0;48.44754982414997;µg-m3;;;;R;1;50.775482;3.12568;Halluin;59279;50.7747480298;3.12692474358;Halluin;48.5;20684.0;376.0;1646.8;76.2;21590.0;19.4;4.0;2.0;0.0
2022/01/01 00:00:00;2022/12/31 23:59:59;ATMO HAUTS DE FRANCE;FR32ZAG02;ZAG LILLE;FR11114;Wattignies;Périurbaine;O3;Fond;Oui;mesures fixes;Moy. annuelle;52.0;51.86667927382747;µg-m3;;;;R;1;50.59774;3.04946;Wattignies;59648;50.5864928159;3.04193803597;Wattignies;53.4;15756.0;234.0;2497.0;74.7;21990.0;3.4;1.8;1.0;0.0
2022/01/01 00:00:00;2022/12/31 23:59:59;ATMO OCCITANIE;FR76ZAG01;ZAG TOULOUSE;FR12004;ECOLE M.JACQUIER;Urbaine;O3;Fond;Oui;mesures fixes;Moy. annuelle;58.0;57.88555085230526;µg-m3;;;;R;1;43.575694;1.418064;Toulouse;31555;43.5963814303;1.43167293364;Toulouse;46.5;511684.0;19723.0;4325.3;71.8;22140.0;12.8;3.9;91.0;2.0
2022/01/01 00:00:00;2022/12/31 23:59:59;ATMO OCCITANIE;FR76ZAG01;ZAG TOULOUSE;FR12004;ECOLE M.JACQUIER;Urbaine;O3;Fond;Oui;mesures fixes;Moy. annuelle;58.0;57.88555085230526;µg-m3;;;;R;1;43.575694;1.418064;Toulouse;31555;43.5963814303;1.43167293364;Toulouse;46.5;511684.0;19723.0;4325.3;71.8;22140.0;12.8;3.9;91.0;2.0
2022/01/01 00:00:00;2022/12/31 23:59:59;ATMO OCCITANIE;FR76ZAG01;ZAG TOULOUSE;FR12004;ECOLE M.JACQUIER;Urbaine;O3;Fond;Oui;mesures fixes;Moy. annuelle;58.0;57.88555085230526;µg-m3;;;;R;1;43.575694;1.418064;Toulouse;31555;43.5963814303;1.43167293364;Toulouse;46.5;511684.0;19723.0;4325.3;71.8;22140.0;12.8;3.9;91.0;2.0
2022/01/01 00:00:00;2022/12/31 23:59:59;ATMO OCCITANIE;FR76ZAG01;ZAG TOULOUSE;FR12004;ECOLE M.JACQUIER;Urbaine;O3;Fond;Oui;mesures fixes;Moy. annuelle;58.0;57.88555085230526;µg-m3;;;;R;1;43.575694;1.418064;Toulouse;31555;43.5963814303;1.43167293364;Toulouse;46.5;511684.0;19723.0;4325.3;71.8;22140.0;12.8;3.9;91.0;2.0
2022/01/01 00:00:00;2022/12/31 23:59:59;ATMO OCCITANIE;FR76ZAG01;ZAG TOULOUSE;FR12004;ECOLE M.JACQUIER;Urbaine;O3;Fond;Oui;mesures fixes;Moy. annuelle;58.0;57.88555085230526;µg-m3;;;;R;1;43.575694;1.418064;Toulouse;31555;43.5963814303;1.43167293364;Toulouse;46.5;511684.0;19723.0;4325.3;71.8;22140.0;12.8;3.9;91.0;2.0
2022/01/01 00:00:00;2022/12/31 23:59:59;ATMO OCCITANIE;FR76ZAG01;ZAG TOULOUSE;FR12004;ECOLE M.JACQUIER;Urbaine;O3;Fond;Oui;mesures fixes;Moy. annuelle;58.0;57.88555085230526;µg-m3;;;;R;1;43.575694;1.418064;Toulouse;31555;43.5963814303;1.43167293364;Toulouse;46.5;511684.0;19723.0;4325.3;71.8;22140.0;12.8;3.9;91.0;2.0
2022/01/01 00:00:00;2022/12/31 23:59:59;ATMO OCCITANIE;FR76ZRE01;ZR OCCITANIE;FR12020;PEYRUSSE;Rurale nationale;O3;Fond;Oui;mesures fixes;Moy. annuelle;67.0;67.02688172043014;µg-m3;;;;R;1;43.6287;0.179069;Peyrusse-Vieille;32317;43.6275468011;0.1757963589;Peyrusse-Vieille;0.0;64.0;2.0;5.8;75.6;;0.0;0.0;0.0;0.0
2022/01/01 00:00:00;2022/12/31 23:59:59;ATMO OCCITANIE;FR76ZRE01;ZR OCCITANIE;FR12029;GAUDONVILLE;Rurale régionale;O3;Fond;Oui;mesures fixes;Moy. annuelle;66.0;66.20842863677952;µg-m3;;;;R;1;43.883933;0.845617;Gaudonville;32139;43.8852287116;0.8453478098;Gaudonville;22.2;106.0;4.0;14.3;71.2;;0.0;33.3;0.0;1.0
2022/01/01 00:00:00;2022/12/31 23:59:59;ATMO OCCITANIE;FR76ZAG01;ZAG TOULOUSE;FR12030;Toulouse Berthelot;Urbaine;O3;Fond;Oui;mesures fixes;Moy. annuelle;59.0;58.7547918572736;µg-m3;;;;R;1;43.587344;1.444003;Toulouse;31555;43.5963814303;1.43167293364;Toulouse;46.5;511684.0;19723.0;4325.3;71.8;22140.0;12.8;3.9;91.0;2.0
2022/01/01 00:00:00;2022/12/31 23:59:59;ATMO OCCITANIE;FR76ZAG01;ZAG TOULOUSE;FR12030;Toulouse Berthelot;Urbaine;O3;Fond;Oui;mesures fixes;Moy. annuelle;59.0;58.7547918572736;µg-m3;;;;R;1;43.587344;1.444003;Toulouse;31555;43.5963814303;1.43167293364;Toulouse;46.5;511684.0;19723.0;4325.3;71.8;22140.0;12.8;3.9;91.0;2.0
2022/01/01 00:00:00;2022/12/31 23:59:59;ATMO OCCITANIE;FR76ZAG01;ZAG TOULOUSE;FR12030;Toulouse Berthelot;Urbaine;O3;Fond;Oui;mesures fixes;Moy. annuelle;59.0;58.7547918572736;µg-m3;;;;R;1;43.587344;1.444003;Toulouse;31555;43.5963814303;1.43167293364;Toulouse;46.5;511684.0;19723.0;4325.3;71.8;22140.0;12.8;3.9;91.0;2.0
2022/01/01 00:00:00;2022/12/31 23:59:59;ATMO OCCITANIE;FR76ZAG01;ZAG TOULOUSE;FR12030;Toulouse Berthelot;Urbaine;O3;Fond;Oui;mesures fixes;Moy. annuelle;59.0;58.7547918572736;µg-m3;;;;R;1;43.587344;1.444003;Toulouse;31555;43.5963814303;1.43167293364;Toulouse;46.5;511684.0;19723.0;4325.3;71.8;22140.0;12.8;3.9;91.0;2.0
2022/01/01 00:00:00;2022/12/31 23:59:59;ATMO OCCITANIE;FR76ZAG01;ZAG TOULOUSE;FR12030;Toulouse Berthelot;Urbaine;O3;Fond;Oui;mesures fixes;Moy. annuelle;59.0;58.7547918572736;µg-m3;;;;R;1;43.587344;1.444003;Toulouse;31555;43.5963814303;1.43167293364;Toulouse;46.5;511684.0;19723.0;4325.3;71.8;22140.0;12.8;3.9;91.0;2.0
2022/01/01 00:00:00;2022/12/31 23:59:59;ATMO OCCITANIE;FR76ZAG01;ZAG TOULOUSE;FR12030;Toulouse Berthelot;Urbaine;O3;Fond;Oui;mesures fixes;Moy. annuelle;59.0;58.7547918572736;µg-m3;;;;R;1;43.587344;1.444003;Toulouse;31555;43.5963814303;1.43167293364;Toulouse;46.5;511684.0;19723.0;4325.3;71.8;22140.0;12.8;3.9;91.0;2.0
2022/01/01 00:00:00;2022/12/31 23:59:59;ATMO OCCITANIE;FR76ZRE01;ZR OCCITANIE;FR12031;BELESTA EN LAURAGAIS;Rurale régionale;O3;Fond;Oui;mesures fixes;Moy. annuelle;67.0;67.032979337412;µg-m3;;;;R;1;43.44139;1.821944;Bélesta-en-Lauragais;31060;43.4395844562;1.83164556128;Bélesta-en-Lauragais;0.0;112.0;4.0;20.0;81.5;22770.0;85.2;0.0;0.0;0.0
2022/01/01 00:00:00;2022/12/31 23:59:59;ATMO OCCITANIE;FR76ZAG01;ZAG TOULOUSE;FR12041;SICOVAL;Périurbaine;O3;Fond;Oui;mesures fixes;Moy. annuelle;65.0;65.155919395466;µg-m3;;;;R;1;43.457306;1.571469;Montgiscard;31381;43.4551909277;1.57052406322;Montgiscard;73.5;2586.0;67.0;196.5;82.4;27200.0;3.8;4.0;0.0;0.0
2022/01/01 00:00:00;2022/12/31 23:59:59;ATMO OCCITANIE;FR76ZRE01;ZR OCCITANIE;FR12042;LOURDES LAPACCA;Urbaine;O3;Fond;Oui;mesures fixes;Moy. annuelle;57.0;57.03688121641703;µg-m3;;;;R;1;43.096247;-0.040497;Lourdes;65286;43.1074297344;-0.0768069387932;Lourdes;51.1;13266.0;903.0;359.1;68.9;18810.0;9.5;4.6;133.0;8.0
2022/01/01 00:00:00;2022/12/31 23:59:59;ATMO OCCITANIE;FR76ZRE01;ZR OCCITANIE;FR12052;Tarbes lycée Dupuy;Urbaine;O3;Fond;Oui;mesures fixes;Moy. annuelle;53.0;53.32721872401097;µg-m3;;;;R;1;43.230297;0.062339;Tarbes;65440;43.2347859635;0.0660093937851;Tarbes;36.2;44529.0;1907.0;2904.7;64.8;19070.0;5.0;3.2;13.0;0.0
2022/01/01 00:00:00;2022/12/31 23:59:59;ATMO OCCITANIE;FR76ZRE01;ZR OCCITANIE;FR12053;Stade Travet CASTRES;Urbaine;O3;Fond;Oui;mesures fixes;Moy. annuelle;60.0;60.42521105585776;µg-m3;;;;R;1;43.610497;2.23015;Castres;81065;43.6156511237;2.23787231587;Castres;45.2;42700.0;1639.0;435.0;72.0;20940.0;11.8;4.6;11.0;1.0
2022/01/01 00:00:00;2022/12/31 23:59:59;ATMO OCCITANIE;FR76ZRE01;ZR OCCITANIE;FR12095;Rodez;Urbaine;O3;Fond;Oui;mesures fixes;Moy. annuelle;63.0;63.012681912681934;µg-m3;;;;R;1;44.35699225;2.57070422;Rodez;12202;44.3582426254;2.5672793892;Rodez;40.8;24136.0;1503.0;2158.9;72.1;22210.0;5.1;3.1;16.0;1.0
2022/01/01 00:00:00;2022/12/31 23:59:59;ATMO GRAND EST;FR44ZRE01;ZR GRAND-EST;FR14008;REVIN;Rurale nationale;O3;Fond;Oui;mesures fixes;Moy. annuelle;63.0;62.7446119682096;µg-m3;;;;R;1;49.90778;4.63;;nan;;;;;;;;;;;;;
2022/01/01 00:00:00;2022/12/31 23:59:59;ATMO GRAND EST;FR44ZAR01;ZAR REIMS;FR14010;BETHENY;Périurbaine;O3;Fond;Oui;mesures fixes;Moy. annuelle;54.0;54.45376502330141;µg-m3;;;;R;1;49.28222;4.051111;Bétheny;51055;49.2956894813;4.06006294917;Bétheny;53.9;7030.0;228.0;353.3;77.5;24450.0;9.1;20.9;1.0;0.0
2022/01/01 00:00:00;2022/12/31 23:59:59;ATMO GRAND EST;FR44ZAR01;ZAR REIMS;FR14012;Jean d Aulan;Urbaine;O3;Fond;Oui;mesures fixes;Moy. annuelle;52.0;51.97590137241214;µg-m3;;;;R;1;49.224167;4.020556;Reims;51454;49.2514906066;4.0402302322;Reims;42.7;178478.0;5730.0;3805.5;69.7;20210.0;8.7;4.2;42.0;0.0
2022/01/01 00:00:00;2022/12/31 23:59:59;ATMO GRAND EST;FR44ZAR01;ZAR REIMS;FR14012;Jean d Aulan;Urbaine;O3;Fond;Oui;mesures fixes;Moy. annuelle;52.0;51.97590137241214;µg-m3;;;;R;1;49.224167;4.020556;Reims;51454;49.2514906066;4.0402302322;Reims;42.7;178478.0;5730.0;3805.5;69.7;20210.0;8.7;4.2;42.0;0.0
2022/01/01 00:00:00;2022/12/31 23:59:59;ATMO GRAND EST;FR44ZRE01;ZR GRAND-EST;FR14022;CHALONS;Urbaine;O3;Fond;Oui;mesures fixes;Moy. annuelle;53.0;52.95757575757565;µg-m3;;;;R;1;48.962223;4.36;Châlons-en-Champagne;51108;48.9640892125;4.37883539725;Châlons-en-Champagne;30.8;43218.0;1319.0;1659.0;72.5;20320.0;5.6;1.9;10.0;1.0
2022/01/01 00:00:00;2022/12/31 23:59:59;ATMO GRAND EST;FR44ZRE01;ZR GRAND-EST;FR14029;Capitainerie;Périurbaine;O3;Fond;Oui;mesures fixes;Moy. annuelle;56.0;56.18985456251469;µg-m3;;;;R;1;48.7266;4.594781;Vitry-le-François;51649;48.728201078;4.59222371874;Vitry-le-François;34.4;11349.0;455.0;1759.5;66.8;17890.0;16.2;6.2;4.0;1.0
2022/01/01 00:00:00;2022/12/31 23:59:59;ATMO GRAND EST;FR44ZRE01;ZR GRAND-EST;FR14032;ST PARRES AUX TERTRE;Périurbaine;O3;Fond;Oui;mesures fixes;Moy. annuelle;54.0;53.72403630790993;µg-m3;;;;R;1;48.299168;4.117222;Saint-Parres-aux-Tertres;10357;48.2913084954;4.13302448391;Saint-Parres-aux-Tertres;73.5;3214.0;178.0;271.9;76.5;23550.0;0.9;1.2;2.0;0.0
2022/01/01 00:00:00;2022/12/31 23:59:59;ATMO GRAND EST;FR44ZRE01;ZR GRAND-EST;FR14033;STE SAVINE;Urbaine;O3;Fond;Oui;mesures fixes;Moy. annuelle;50.0;50.06263406758156;µg-m3;;;;R;1;48.295002;4.050278;Sainte-Savine;10362;48.2963408998;4.02333022061;Sainte-Savine;46.6;10457.0;321.0;1385.0;75.0;21590.0;25.5;5.3;1.0;0.0
2022/01/01 00:00:00;2022/12/31 23:59:59;ATMO GRAND EST;FR44ZRE01;ZR GRAND-EST;FR14042;St DIZIER L. Michel;Urbaine;O3;Fond;Oui;mesures fixes;Moy. annuelle;57.0;56.64840151254731;µg-m3;;;;R;1;48.645836;4.966111;Saint-Dizier;52448;48.6280100668;4.94923523578;Saint-Dizier;35.7;22811.0;854.0;478.3;67.8;18720.0;19.0;3.2;7.0;0.0
2022/01/01 00:00:00;2022/12/31 23:59:59;ATMO GRAND EST;FR44ZRE01;ZR GRAND-EST;FR14051;CHARLEVILLE;Urbaine;O3;Fond;Oui;mesures fixes;Moy. annuelle;50.0;50.44118189148718;µg-m3;;;;R;1;49.745277;4.719167;Charleville-Mézières;8105;;;Charleville-Mézières;34.6;45634.0;1735.0;1451.5;68.6;18380.0;8.2;1.7;11.0;1.0
2022/01/01 00:00:00;2022/12/31 23:59:59;ATMO AUVERGNE-RHÔNE-ALPES;FR84ZAG02;ZAG GRENOBLE;FR15013;Champ sur Drac;Périurbaine;O3;Fond;Oui;mesures indicatives;Moy. annuelle;50.0;49.53696377228298;µg-m3;;;;R;1;45.07954;5.728653;Champ-sur-Drac;38071;45.0692413973;5.72756303185;Champ-sur-Drac;19.6;3344.0;74.0;374.9;77.6;24940.0;62.8;8.2;0.0;0.0
2022/01/01 00:00:00;2022/12/31 23:59:59;ATMO AUVERGNE-RHÔNE-ALPES;FR84ZAG02;ZAG GRENOBLE;FR15018;Voiron Urbain;Urbaine;O3;Fond;Oui;mesures indicatives;Moy. annuelle;48.0;48.386499643790174;µg-m3;;;;R;1;45.360176;5.589419;Voiron;38563;45.3791720843;5.58240310671;Voiron;52.3;21604.0;1046.0;986.5;77.2;23110.0;9.2;3.4;4.0;0.0
2022/01/01 00:00:00;2022/12/31 23:59:59;ATMO AUVERGNE-RHÔNE-ALPES;FR93ZRE02;ZR PROVENCE-ALPES-COTE-D-AZUR;FR15031;Le Casset2;Rurale nationale;O3;Fond;Oui;mesures indicatives;Moy. annuelle;87.0;86.65793230485848;µg-m3;;;;R;1;44.997;6.4694;;nan;;;;;;;;;;;;;
2022/01/01 00:00:00;2022/12/31 23:59:59;ATMO AUVERGNE-RHÔNE-ALPES;FR84ZAG02;ZAG GRENOBLE;FR15038;St Martin d'Heres;Urbaine;O3;Fond;Oui;mesures indicatives;Moy. annuelle;42.0;41.5110601247205;µg-m3;;;;R;1;45.1828;5.7531;Saint-Martin-d'Hères;38421;45.1762012553;5.76476360737;Saint-Martin-d'Hères;28.3;38022.0;1005.0;4106.0;63.6;21160.0;2.7;4.8;1.0;0.0
2022/01/01 00:00:00;2022/12/31 23:59:59;ATMO AUVERGNE-RHÔNE-ALPES;FR84ZAG02;ZAG GRENOBLE;FR15043;Grenoble Les Frenes;Urbaine;O3;Fond;Oui;mesures fixes;Moy. annuelle;44.0;44.01436973820784;µg-m3;;;;R;1;45.1619;5.7356;Grenoble;38185;45.1821215167;5.72133051752;Grenoble;50.6;156389.0;6535.0;8626.0;70.7;22140.0;9.4;1.7;31.0;0.0
2022/01/01 00:00:00;2022/12/31 23:59:59;ATMO AUVERGNE-RHÔNE-ALPES;FR84ZAG02;ZAG GRENOBLE;FR15043;Grenoble Les Frenes;Urbaine;O3;Fond;Oui;mesures fixes;Moy. annuelle;44.0;44.01436973820784;µg-m3;;;;R;1;45.1619;5.7356;Grenoble;38185;45.1821215167;5.72133051752;Grenoble;50.6;156389.0;6535.0;8626.0;70.7;22140.0;9.4;1.7;31.0;0.0
2022/01/01 00:00:00;2022/12/31 23:59:59;ATMO AUVERGNE-RHÔNE-ALPES;FR84ZAG02;ZAG GRENOBLE;FR15045;Grenoble PeriurbSud;Périurbaine;O3;Fond;Oui;mesures fixes;Moy. annuelle;51.0;51.464473227709135;µg-m3;;;;R;1;45.0578;5.6767;Vif;38545;45.0430999483;5.67425076002;Vif;33.3;8557.0;198.0;302.4;77.8;26090.0;4.6;26.7;0.0;0.0
2022/01/01 00:00:00;2022/12/31 23:59:59;ATMO AUVERGNE-RHÔNE-ALPES;FR84ZAG02;ZAG GRENOBLE;FR15048;Gresivaudan Periurb;Périurbaine;O3;Fond;Oui;mesures indicatives;Moy. annuelle;43.0;42.84795728876509;µg-m3;;;;R;1;45.2797;5.8822;Crolles;38140;45.2820293287;5.88883985593;Crolles;19.3;8463.0;378.0;595.6;76.7;28760.0;65.9;1.9;1.0;0.0
2022/01/01 00:00:00;2022/12/31 23:59:59;ATMO GRAND EST;FR44ZRE01;ZR GRAND-EST;FR16017;Nord-Est Alsace;Rurale régionale;O3;Fond;Oui;mesures fixes;Moy. annuelle;49.0;49.2370065025547;µg-m3;;;;R;1;48.919357;8.158458;Munchhausen;67308;48.9149378138;8.14501372175;Munchhausen;55.3;799.0;13.0;135.0;84.5;27410.0;0.0;17.0;0.0;1.0
2022/01/01 00:00:00;2022/12/31 23:59:59;ATMO GRAND EST;FR44ZAG01;ZAG STRASBOURG;FR16029;Strasbourg Nord;Urbaine;O3;Fond;Oui;mesures fixes;Moy. annuelle;48.0;48.345318701844434;µg-m3;;;;R;1;48.610363;7.781631;Strasbourg;67482;48.5712679849;7.76752679517;Strasbourg;48.4;291709.0;11377.0;3727.4;68.7;20260.0;4.4;2.0;83.0;1.0
2022/01/01 00:00:00;2022/12/31 23:59:59;ATMO GRAND EST;FR44ZAG01;ZAG STRASBOURG;FR16029;Strasbourg Nord;Urbaine;O3;Fond;Oui;mesures fixes;Moy. annuelle;48.0;48.345318701844434;µg-m3;;;;R;1;48.610363;7.781631;Strasbourg;67482;48.5712679849;7.76752679517;Strasbourg;48.4;291709.0;11377.0;3727.4;68.7;20260.0;4.4;2.0;83.0;1.0
2022/01/01 00:00:00;2022/12/31 23:59:59;ATMO GRAND EST;FR44ZAG01;ZAG STRASBOURG;FR16029;Strasbourg Nord;Urbaine;O3;Fond;Oui;mesures fixes;Moy. annuelle;48.0;48.345318701844434;µg-m3;;;;R;1;48.610363;7.781631;Strasbourg;67482;48.5712679849;7.76752679517;Strasbourg;48.4;291709.0;11377.0;3727.4;68.7;20260.0;4.4;2.0;83.0;1.0
2022/01/01 00:00:00;2022/12/31 23:59:59;ATMO GRAND EST;FR44ZRE01;ZR GRAND-EST;FR16031;Vosges du Nord;Rurale régionale;O3;Fond;Oui;mesures fixes;Moy. annuelle;65.0;65.27403430972109;µg-m3;;;;R;1;48.85731;7.314175;La Petite-Pierre;67371;48.8657597248;7.32734776032;La Petite-Pierre;70.2;599.0;29.0;30.6;80.8;23690.0;1.5;2.1;5.0;0.0
2022/01/01 00:00:00;2022/12/31 23:59:59;ATMO GRAND EST;FR44ZAG01;ZAG STRASBOURG;FR16041;Strasbourg Sud 2;Périurbaine;O3;Fond;Oui;mesures fixes;Moy. annuelle;49.0;49.21105556847241;µg-m3;;;;R;1;48.5157;7.687819;Geispolsheim;67152;48.5143463092;7.65806561244;Geispolsheim;67.1;7759.0;505.0;353.5;78.8;25970.0;12.8;12.7;6.0;0.0
2022/01/01 00:00:00;2022/12/31 23:59:59;ATMO GRAND EST;FR44ZRE01;ZR GRAND-EST;FR16064;Colmar Sud;Périurbaine;O3;Fond;Oui;mesures fixes;Moy. annuelle;55.0;54.60901078510948;µg-m3;;;;R;1;48.065414;7.333139;Colmar;68066;48.1099405789;7.38468690323;Colmar;39.9;67360.0;3025.0;1011.9;75.6;21120.0;11.6;4.1;32.0;0.0
2022/01/01 00:00:00;2022/12/31 23:59:59;ATMO GRAND EST;FR44ZRE01;ZR GRAND-EST;FR16065;Mulhouse Est;Périurbaine;O3;Fond;Oui;mesures fixes;Moy. annuelle;61.0;61.17539201098785;µg-m3;;;;R;1;47.723106;7.341603;Mulhouse;68224;47.749163303;7.32570047509;Mulhouse;40.4;104924.0;3795.0;4730.6;67.5;16620.0;4.1;5.4;16.0;1.0
2022/01/01 00:00:00;2022/12/31 23:59:59;ATMO GRAND EST;FR44ZRE01;ZR GRAND-EST;FR16065;Mulhouse Est;Périurbaine;O3;Fond;Oui;mesures fixes;Moy. annuelle;61.0;61.17539201098785;µg-m3;;;;R;1;47.723106;7.341603;Mulhouse;68224;47.749163303;7.32570047509;Mulhouse;40.4;104924.0;3795.0;4730.6;67.5;16620.0;4.1;5.4;16.0;1.0
2022/01/01 00:00:00;2022/12/31 23:59:59;ATMO GRAND EST;FR44ZRE01;ZR GRAND-EST;FR16065;Mulhouse Est;Périurbaine;O3;Fond;Oui;mesures fixes;Moy. annuelle;61.0;61.17539201098785;µg-m3;;;;R;1;47.723106;7.341603;Mulhouse;68224;47.749163303;7.32570047509;Mulhouse;40.4;104924.0;3795.0;4730.6;67.5;16620.0;4.1;5.4;16.0;1.0
2022/01/01 00:00:00;2022/12/31 23:59:59;ATMO GRAND EST;FR44ZRE01;ZR GRAND-EST;FR16065;Mulhouse Est;Périurbaine;O3;Fond;Oui;mesures fixes;Moy. annuelle;61.0;61.17539201098785;µg-m3;;;;R;1;47.723106;7.341603;Mulhouse;68224;47.749163303;7.32570047509;Mulhouse;40.4;104924.0;3795.0;4730.6;67.5;16620.0;4.1;5.4;16.0;1.0
2022/01/01 00:00:00;2022/12/31 23:59:59;ATMO GRAND EST;FR44ZRE01;ZR GRAND-EST;FR16066;Mulhouse Sud 2;Urbaine;O3;Fond;Oui;mesures fixes;Moy. annuelle;52.0;51.85097383888439;µg-m3;;;;R;1;47.737415;7.309075;Mulhouse;68224;47.749163303;7.32570047509;Mulhouse;40.4;104924.0;3795.0;4730.6;67.5;16620.0;4.1;5.4;16.0;1.0
2022/01/01 00:00:00;2022/12/31 23:59:59;ATMO GRAND EST;FR44ZRE01;ZR GRAND-EST;FR16066;Mulhouse Sud 2;Urbaine;O3;Fond;Oui;mesures fixes;Moy. annuelle;52.0;51.85097383888439;µg-m3;;;;R;1;47.737415;7.309075;Mulhouse;68224;47.749163303;7.32570047509;Mulhouse;40.4;104924.0;3795.0;4730.6;67.5;16620.0;4.1;5.4;16.0;1.0
2022/01/01 00:00:00;2022/12/31 23:59:59;ATMO GRAND EST;FR44ZRE01;ZR GRAND-EST;FR16066;Mulhouse Sud 2;Urbaine;O3;Fond;Oui;mesures fixes;Moy. annuelle;52.0;51.85097383888439;µg-m3;;;;R;1;47.737415;7.309075;Mulhouse;68224;47.749163303;7.32570047509;Mulhouse;40.4;104924.0;3795.0;4730.6;67.5;16620.0;4.1;5.4;16.0;1.0
2022/01/01 00:00:00;2022/12/31 23:59:59;ATMO GRAND EST;FR44ZRE01;ZR GRAND-EST;FR16066;Mulhouse Sud 2;Urbaine;O3;Fond;Oui;mesures fixes;Moy. annuelle;52.0;51.85097383888439;µg-m3;;;;R;1;47.737415;7.309075;Mulhouse;68224;47.749163303;7.32570047509;Mulhouse;40.4;104924.0;3795.0;4730.6;67.5;16620.0;4.1;5.4;16.0;1.0
2022/01/01 00:00:00;2022/12/31 23:59:59;ATMO GRAND EST;FR44ZRE01;ZR GRAND-EST;FR16302;Donon Vosges Moyennes 2;Rurale nationale;O3;Fond;Oui;mesures fixes;Moy. annuelle;70.0;70.33449929808154;µg-m3;;;;R;1;48.492992;7.1298;;nan;;;;;;;;;;;;;
2022/01/01 00:00:00;2022/12/31 23:59:59;ATMO HAUTS DE FRANCE;FR32ZAR03;ZAR CREIL;FR18019;Nogent sur Oise;Périurbaine;O3;Fond;Oui;mesures fixes;Moy. annuelle;29.0;28.52163865546218;µg-m3;;;;N;-1;49.276386;2.482167;Nogent-sur-Oise;60463;49.2761508066;2.46417183632;Nogent-sur-Oise;42.1;21859.0;412.0;2930.2;66.2;17620.0;14.9;7.0;0.0;0.0
2022/01/01 00:00:00;2022/12/31 23:59:59;ATMO HAUTS DE FRANCE;FR32ZAR02;ZAR AMIENS;FR18035;Salouel;Périurbaine;O3;Fond;Oui;mesures fixes;Moy. annuelle;45.0;45.48333333333337;µg-m3;;;;R;1;49.86889;2.239806;Salouël;80725;49.8699278387;2.24181586447;Salouël;68.5;4188.0;74.0;978.5;60.5;26820.0;3.1;1.9;0.0;0.0
2022/01/01 00:00:00;2022/12/31 23:59:59;ATMO HAUTS DE FRANCE;FR32ZRE01;ZR HAUTS-DE-FRANCE;FR18039;Arrest;Rurale régionale;O3;Fond;Oui;mesures fixes;Moy. annuelle;57.0;56.54656654820593;µg-m3;;;;R;1;50.129448;1.610833;Arrest;80029;50.1288264007;1.61923803705;Arrest;22.3;825.0;12.0;74.0;73.2;20660.0;65.5;2.2;0.0;0.0
2022/01/01 00:00:00;2022/12/31 23:59:59;ATMO HAUTS DE FRANCE;FR32ZRE01;ZR HAUTS-DE-FRANCE;FR18042;P. Roth St Quentin;Urbaine;O3;Fond;Oui;mesures fixes;Moy. annuelle;52.0;51.52490701999068;µg-m3;;;;R;1;49.851334;3.284;Saint-Quentin;2691;;;Saint-Quentin;41.6;52995.0;1768.0;2349.1;68.1;18400.0;7.0;3.3;8.0;1.0
2022/01/01 00:00:00;2022/12/31 23:59:59;ATMO HAUTS DE FRANCE;FR32ZAR03;ZAR CREIL;FR18043;Faiencerie Creil;Urbaine;O3;Fond;Oui;mesures fixes;Moy. annuelle;48.0;48.32370387946379;µg-m3;;;;R;1;49.259552;2.474397;Creil;60175;49.2533487138;2.48472669359;Creil;33.7;36494.0;911.0;3290.7;63.8;15440.0;7.7;4.6;3.0;0.0
2022/01/01 00:00:00;2022/12/31 23:59:59;ATMO HAUTS DE FRANCE;FR32ZRE01;ZR HAUTS-DE-FRANCE;FR18045;Roye;Rurale près des villes;O3;Fond;Oui;mesures fixes;Moy. annuelle;54.0;53.735193607867245;µg-m3;;;;R;1;49.696697;2.801139;Roye;80685;49.6936899931;2.78868757676;Roye;48.6;5748.0;273.0;369.6;72.7;18970.0;30.0;4.5;1.0;0.0
2022/01/01 00:00:00;2022/12/31 23:59:59;ATMO HAUTS DE FRANCE;FR32ZAR02;ZAR AMIENS;FR18053;St Pierre Amiens;Urbaine;O3;Fond;Oui;mesures fixes;Moy. annuelle;46.0;46.09747161418706;µg-m3;;;;R;1;49.901667;2.304597;Amiens;80021;49.9009532186;2.29007445539;Amiens;35.2;134780.0;4194.0;2708.6;66.2;19650.0;10.1;2.8;19.0;1.0
2022/01/01 00:00:00;2022/12/31 23:59:59;ATMO HAUTS DE FRANCE;FR32ZAR02;ZAR AMIENS;FR18053;St Pierre Amiens;Urbaine;O3;Fond;Oui;mesures fixes;Moy. annuelle;46.0;46.09747161418706;µg-m3;;;;R;1;49.901667;2.304597;Amiens;80021;49.9009532186;2.29007445539;Amiens;35.2;134780.0;4194.0;2708.6;66.2;19650.0;10.1;2.8;19.0;1.0
2022/01/01 00:00:00;2022/12/31 23:59:59;ATMO HAUTS DE FRANCE;FR32ZAR02;ZAR AMIENS;FR18053;St Pierre Amiens;Urbaine;O3;Fond;Oui;mesures fixes;Moy. annuelle;46.0;46.09747161418706;µg-m3;;;;R;1;49.901667;2.304597;Amiens;80021;49.9009532186;2.29007445539;Amiens;35.2;134780.0;4194.0;2708.6;66.2;19650.0;10.1;2.8;19.0;1.0
2022/01/01 00:00:00;2022/12/31 23:59:59;ATMO HAUTS DE FRANCE;FR32ZRE01;ZR HAUTS-DE-FRANCE;FR18057;Neuilly-Saint-Front;Rurale régionale;O3;Fond;Oui;mesures fixes;Moy. annuelle;52.0;52.312258953168005;µg-m3;;;;R;1;49.174931;3.260819;Neuilly-Saint-Front;2543;;;Neuilly-Saint-Front;43.7;1980.0;59.0;110.7;79.0;20960.0;14.4;4.7;0.0;0.0
2022/01/01 00:00:00;2022/12/31 23:59:59;AIR BREIZH;FR53ZAG01;ZAG RENNES;FR19010;Rennes St-Yves;Urbaine;O3;Fond;Oui;mesures fixes;Moy. annuelle;57.0;57.2009800226159;µg-m3;;;;R;1;48.11078;-1.68293;Rennes;35238;48.1119791219;-1.68186449144;Rennes;43.2;227830.0;8528.0;4521.3;68.0;22770.0;2.9;1.7;34.0;1.0
2022/01/01 00:00:00;2022/12/31 23:59:59;AIR BREIZH;FR53ZAG01;ZAG RENNES;FR19010;Rennes St-Yves;Urbaine;O3;Fond;Oui;mesures fixes;Moy. annuelle;57.0;57.2009800226159;µg-m3;;;;R;1;48.11078;-1.68293;Rennes;35238;48.1119791219;-1.68186449144;Rennes;43.2;227830.0;8528.0;4521.3;68.0;22770.0;2.9;1.7;34.0;1.0
2022/01/01 00:00:00;2022/12/31 23:59:59;AIR BREIZH;FR53ZAG01;ZAG RENNES;FR19010;Rennes St-Yves;Urbaine;O3;Fond;Oui;mesures fixes;Moy. annuelle;57.0;57.2009800226159;µg-m3;;;;R;1;48.11078;-1.68293;Rennes;35238;48.1119791219;-1.68186449144;Rennes;43.2;227830.0;8528.0;4521.3;68.0;22770.0;2.9;1.7;34.0;1.0
2022/01/01 00:00:00;2022/12/31 23:59:59;AIR BREIZH;FR53ZAR01;ZAR BREST;FR19012;Brest Mace;Urbaine;O3;Fond;Oui;mesures fixes;Moy. annuelle;62.0;62.20512672811064;µg-m3;;;;R;1;48.38618;-4.4866;Brest;29019;48.4004997828;-4.5027907853;Brest;41.9;140993.0;4160.0;2847.8;69.0;21420.0;11.8;3.3;25.0;1.0
2022/01/01 00:00:00;2022/12/31 23:59:59;AIR BREIZH;FR53ZAR01;ZAR BREST;FR19016;BREST Plouzané;Périurbaine;O3;Fond;Oui;mesures fixes;Moy. annuelle;68.0;67.91947517062846;µg-m3;;;;R;1;48.359444;-4.568055;Plouzané;29212;48.3774359933;-4.59923891903;Plouzané;67.4;13437.0;243.0;405.5;71.1;24740.0;6.4;1.3;1.0;0.0
2022/01/01 00:00:00;2022/12/31 23:59:59;AIR BREIZH;FR53ZAG01;ZAG RENNES;FR19018;MORDELLES BELLAIS;Périurbaine;O3;Fond;Oui;mesures fixes;Moy. annuelle;56.0;55.99689150264042;µg-m3;;;;R;1;48.082883;-1.834583;Mordelles;35196;48.0857602983;-1.84210731238;Mordelles;46.1;7831.0;227.0;263.1;78.0;23950.0;21.0;6.1;0.0;0.0
2022/01/01 00:00:00;2022/12/31 23:59:59;AIR BREIZH;FR53ZRE01;ZR BRETAGNE;FR19020;Kergoff;Rurale nationale;O3;Fond;Oui;mesures fixes;Moy. annuelle;68.0;68.29638852826619;µg-m3;;;;R;1;48.261963;-2.943631;;nan;;;;;;;;;;;;;
2022/01/01 00:00:00;2022/12/31 23:59:59;AIR BREIZH;FR53ZRE01;ZR BRETAGNE;FR19032;Lorient B. Bissonnet;Urbaine;O3;Fond;Oui;mesures fixes;Moy. annuelle;64.0;63.59783418723795;µg-m3;;;;R;1;47.7425;-3.39501;Lorient;56121;47.7500486947;-3.37823200917;Lorient;40.2;58202.0;2615.0;3329.6;70.8;20860.0;12.8;3.9;15.0;0.0
2022/01/01 00:00:00;2022/12/31 23:59:59;AIR BREIZH;FR53ZRE01;ZR BRETAGNE;FR19033;Vannes UTA;Urbaine;O3;Fond;Oui;mesures fixes;Moy. annuelle;62.0;62.21686622150602;µg-m3;;;;R;1;47.64892;-2.76399;Vannes;56260;47.6597493766;-2.75714329498;Vannes;44.1;54955.0;3080.0;1701.4;70.8;24070.0;6.3;3.4;22.0;1.0
2022/01/01 00:00:00;2022/12/31 23:59:59;AIR BREIZH;FR53ZAG01;ZAG RENNES;FR19039;Rennes Thabor;Urbaine;O3;Fond;Oui;mesures fixes;Moy. annuelle;43.0;43.19690909090908;µg-m3;;;;N;-1;48.11521;-1.673088;Rennes;35238;48.1119791219;-1.68186449144;Rennes;43.2;227830.0;8528.0;4521.3;68.0;22770.0;2.9;1.7;34.0;1.0
2022/01/01 00:00:00;2022/12/31 23:59:59;AIR BREIZH;FR53ZAG01;ZAG RENNES;FR19039;Rennes Thabor;Urbaine;O3;Fond;Oui;mesures fixes;Moy. annuelle;43.0;43.19690909090908;µg-m3;;;;N;-1;48.11521;-1.673088;Rennes;35238;48.1119791219;-1.68186449144;Rennes;43.2;227830.0;8528.0;4521.3;68.0;22770.0;2.9;1.7;34.0;1.0
2022/01/01 00:00:00;2022/12/31 23:59:59;AIR BREIZH;FR53ZAG01;ZAG RENNES;FR19039;Rennes Thabor;Urbaine;O3;Fond;Oui;mesures fixes;Moy. annuelle;43.0;43.19690909090908;µg-m3;;;;N;-1;48.11521;-1.673088;Rennes;35238;48.1119791219;-1.68186449144;Rennes;43.2;227830.0;8528.0;4521.3;68.0;22770.0;2.9;1.7;34.0;1.0
2022/01/01 00:00:00;2022/12/31 23:59:59;AIR BREIZH;FR53ZRE01;ZR BRETAGNE;FR19053;Quimper Zola;Urbaine;O3;Fond;Oui;mesures fixes;Moy. annuelle;60.0;59.87404668361455;µg-m3;;;;R;1;47.986606;-4.097658;Quimper;29232;47.9971425162;-4.09111944455;Quimper;39.7;64530.0;3044.0;764.1;74.1;22700.0;9.4;4.0;18.0;2.0
2022/01/01 00:00:00;2022/12/31 23:59:59;AIR BREIZH;FR53ZRE01;ZR BRETAGNE;FR19061;Saint Brieuc Balzac;Urbaine;O3;Fond;Oui;mesures fixes;Moy. annuelle;60.0;59.75255381035485;µg-m3;;;;R;1;48.51351;-2.74953;Saint-Brieuc;22278;48.5149806053;-2.76154552773;Saint-Brieuc;25.1;44607.0;1581.0;2038.7;71.7;20910.0;4.3;2.3;8.0;1.0
2022/01/01 00:00:00;2022/12/31 23:59:59;AIR BREIZH;FR53ZRE01;ZR BRETAGNE;FR19082;StMalo Rocabey;Périurbaine;O3;Fond;Oui;mesures fixes;Moy. annuelle;60.0;60.480355276907126;µg-m3;;;;R;1;48.65306;-2.00268;Saint-Malo;35288;48.6400443482;-1.98060627256;Saint-Malo;47.7;47255.0;2525.0;1291.8;73.5;23490.0;12.1;4.4;77.0;3.0
2022/01/01 00:00:00;2022/12/31 23:59:59;AIR BREIZH;FR53ZRE01;ZR BRETAGNE;FR19082;StMalo Rocabey;Périurbaine;O3;Fond;Oui;mesures fixes;Moy. annuelle;60.0;60.480355276907126;µg-m3;;;;R;1;48.65306;-2.00268;Saint-Malo;35288;48.6400443482;-1.98060627256;Saint-Malo;47.7;47255.0;2525.0;1291.8;73.5;23490.0;12.1;4.4;77.0;3.0
2022/01/01 00:00:00;2022/12/31 23:59:59;AIR BREIZH;FR53ZRE01;ZR BRETAGNE;FR19082;StMalo Rocabey;Périurbaine;O3;Fond;Oui;mesures fixes;Moy. annuelle;60.0;60.480355276907126;µg-m3;;;;R;1;48.65306;-2.00268;Saint-Malo;35288;48.6400443482;-1.98060627256;Saint-Malo;47.7;47255.0;2525.0;1291.8;73.5;23490.0;12.1;4.4;77.0;3.0
2022/01/01 00:00:00;2022/12/31 23:59:59;AIR BREIZH;FR53ZRE01;ZR BRETAGNE;FR19082;StMalo Rocabey;Périurbaine;O3;Fond;Oui;mesures fixes;Moy. annuelle;60.0;60.480355276907126;µg-m3;;;;R;1;48.65306;-2.00268;Saint-Malo;35288;48.6400443482;-1.98060627256;Saint-Malo;47.7;47255.0;2525.0;1291.8;73.5;23490.0;12.1;4.4;77.0;3.0
2022/01/01 00:00:00;2022/12/31 23:59:59;AIR BREIZH;FR53ZRE01;ZR BRETAGNE;FR19082;StMalo Rocabey;Périurbaine;O3;Fond;Oui;mesures fixes;Moy. annuelle;60.0;60.480355276907126;µg-m3;;;;R;1;48.65306;-2.00268;Saint-Malo;35288;48.6400443482;-1.98060627256;Saint-Malo;47.7;47255.0;2525.0;1291.8;73.5;23490.0;12.1;4.4;77.0;3.0
2022/01/01 00:00:00;2022/12/31 23:59:59;ATMO AUVERGNE-RHÔNE-ALPES;FR84ZAG01;ZAG LYON;FR20017;GERLAND;Urbaine;O3;Fond;Oui;mesures indicatives;Moy. annuelle;54.0;54.023940729855546;µg-m3;;;;R;1;45.73529;4.829794;Lyon;69387;45.7334098415;4.83758495703;;;;;;;;;;;
2022/01/01 00:00:00;2022/12/31 23:59:59;ATMO AUVERGNE-RHÔNE-ALPES;FR84ZAG01;ZAG LYON;FR20037;TERNAY;Périurbaine;O3;Fond;Oui;mesures fixes;Moy. annuelle;57.0;56.585467208357535;µg-m3;;;;R;1;45.6019;4.8022;Ternay;69297;45.6055276798;4.80759320832;Ternay;52.0;5582.0;162.0;692.6;78.2;27400.0;19.4;19.4;0.0;0.0
2022/01/01 00:00:00;2022/12/31 23:59:59;ATMO AUVERGNE-RHÔNE-ALPES;FR84ZAG01;ZAG LYON;FR20046;VAULX EN VELIN;Urbaine;O3;Fond;Oui;mesures indicatives;Moy. annuelle;53.0;52.65677441540574;µg-m3;;;;R;1;45.7789;4.9247;Vaulx-en-Velin;69256;45.7858821061;4.92637767698;Vaulx-en-Velin;53.4;52448.0;1893.0;2503.5;67.8;17180.0;10.3;11.0;2.0;0.0
2022/01/01 00:00:00;2022/12/31 23:59:59;ATMO AUVERGNE-RHÔNE-ALPES;FR84ZAG01;ZAG LYON;FR20047;COTIERE AIN;Périurbaine;O3;Fond;Oui;mesures indicatives;Moy. annuelle;55.0;55.11143526654948;µg-m3;;;;R;1;45.823223;4.953958;Miribel;1249;;;Miribel;38.8;10450.0;389.0;426.7;79.8;26720.0;24.8;12.3;0.0;0.0
2022/01/01 00:00:00;2022/12/31 23:59:59;ATMO AUVERGNE-RHÔNE-ALPES;FR84ZAG01;ZAG LYON;FR20048;SAINT EXUPERY;Périurbaine;O3;Fond;Oui;mesures fixes;Moy. annuelle;54.0;54.11002687857904;µg-m3;;;;R;1;45.7533;5.0722;;nan;;;;;;;;;;;;;
2022/01/01 00:00:00;2022/12/31 23:59:59;ATMO AUVERGNE-RHÔNE-ALPES;FR84ZRE02;ZR AUVERGNE-RHONE-ALPES;FR20049;HAUT BEAUJOLAIS;Rurale près des villes;O3;Fond;Oui;mesures fixes;Moy. annuelle;73.0;72.69572649572643;µg-m3;;;;R;1;45.96141;4.465711;Dième;69075;45.9618729575;4.46094173485;Dième;42.9;196.0;6.0;21.7;79.5;23960.0;0.0;28.6;0.0;0.0
2022/01/01 00:00:00;2022/12/31 23:59:59;ATMO AUVERGNE-RHÔNE-ALPES;FR84ZAG01;ZAG LYON;FR20062;LYON Centre;Urbaine;O3;Fond;Oui;mesures fixes;Moy. annuelle;50.0;50.08304210155984;µg-m3;;;;R;1;45.757732;4.854214;Lyon;69383;45.7533552486;4.86918522013;;;;;;;;;;;
2022/01/01 00:00:00;2022/12/31 23:59:59;ATMO AUVERGNE-RHÔNE-ALPES;FR84ZAG01;ZAG LYON;FR20077;Villefranche Centre ;Urbaine;O3;Fond;Oui;mesures indicatives;Moy. annuelle;40.0;40.18016423779783;µg-m3;;;;R;1;45.990112;4.715566;Villefranche-sur-Saône;69264;45.9874596667;4.73174007305;Villefranche-sur-Saône;54.9;36224.0;1728.0;3821.1;72.5;19640.0;10.7;3.2;9.0;1.0
2022/01/01 00:00:00;2022/12/31 23:59:59;ATMO NORMANDIE;FR28ZAR02;ZAR CAEN;FR21001;Caen Chemin-Vert;Urbaine;O3;Fond;Oui;mesures fixes;Moy. annuelle;55.0;54.745614644884654;µg-m3;;;;R;1;49.19222;-0.391111;Caen;14118;49.1847936737;-0.369801713036;Caen;35.6;108398.0;4516.0;4217.8;66.2;21600.0;2.3;1.6;32.0;0.0
2022/01/01 00:00:00;2022/12/31 23:59:59;ATMO NORMANDIE;FR28ZAR02;ZAR CAEN;FR21017;Ouistreham;Périurbaine;O3;Fond;Oui;mesures fixes;Moy. annuelle;57.0;57.16889732091522;µg-m3;;;;R;1;49.289444;-0.257778;Ouistreham;14488;49.2745280107;-0.257718317859;Ouistreham;65.4;9261.0;346.0;930.8;70.9;24050.0;4.9;1.8;10.0;2.0
2022/01/01 00:00:00;2022/12/31 23:59:59;ATMO NORMANDIE;FR28ZAR02;ZAR CAEN;FR21019;IFS Caen sud;Urbaine;O3;Fond;Oui;mesures fixes;Moy. annuelle;50.0;49.7613712132193;µg-m3;;;;N;-1;49.15167;-0.352778;Ifs;14341;49.1405779091;-0.342694064356;Ifs;60.2;11868.0;402.0;1309.9;73.9;22310.0;8.4;10.6;3.0;0.0
2022/01/01 00:00:00;2022/12/31 23:59:59;ATMO NORMANDIE;FR28ZRE02;ZR NORMANDIE;FR21021;Lisieux;Urbaine;O3;Fond;Oui;mesures fixes;Moy. annuelle;50.0;49.730143595634736;µg-m3;;;;R;1;49.147224;0.227222;Lisieux;14366;49.1466628463;0.238274840452;Lisieux;43.9;19540.0;903.0;1495.0;72.6;19440.0;12.2;3.4;11.0;1.0
2022/01/01 00:00:00;2022/12/31 23:59:59;ATMO NORMANDIE;FR28ZRE02;ZR NORMANDIE;FR21031;Alençon Météo-France;Périurbaine;O3;Fond;Oui;mesures fixes;Moy. annuelle;57.0;57.01336201883935;µg-m3;;;;R;1;48.445553;0.110833;Cerisé;61077;48.4441981247;0.131476179306;Cerisé;77.2;853.0;67.0;193.0;72.3;21400.0;6.3;7.3;1.0;0.0
2022/01/01 00:00:00;2022/12/31 23:59:59;ATMO NORMANDIE;FR28ZRE02;ZR NORMANDIE;FR21038;Cherbourg Hotel de Ville;Urbaine;O3;Fond;Oui;mesures fixes;Moy. annuelle;61.0;61.00117536436302;µg-m3;;;;R;1;49.64225;-1.624361;Cherbourg-en-Cotentin;50129;49.633412156;-1.63390160204;Cherbourg-en-Cotentin;41.7;78028.0;2165.0;1138.4;74.7;22650.0;19.4;3.4;23.0;4.0
2022/01/01 00:00:00;2022/12/31 23:59:59;ATMO NORMANDIE;FR28ZRE02;ZR NORMANDIE;FR21038;Cherbourg Hotel de Ville;Urbaine;O3;Fond;Oui;mesures fixes;Moy. annuelle;61.0;61.00117536436302;µg-m3;;;;R;1;49.64225;-1.624361;Cherbourg-en-Cotentin;50129;49.633412156;-1.63390160204;Cherbourg-en-Cotentin;41.7;78028.0;2165.0;1138.4;74.7;22650.0;19.4;3.4;23.0;4.0
2022/01/01 00:00:00;2022/12/31 23:59:59;ATMO NORMANDIE;FR28ZRE02;ZR NORMANDIE;FR21038;Cherbourg Hotel de Ville;Urbaine;O3;Fond;Oui;mesures fixes;Moy. annuelle;61.0;61.00117536436302;µg-m3;;;;R;1;49.64225;-1.624361;Cherbourg-en-Cotentin;50129;49.633412156;-1.63390160204;Cherbourg-en-Cotentin;41.7;78028.0;2165.0;1138.4;74.7;22650.0;19.4;3.4;23.0;4.0
2022/01/01 00:00:00;2022/12/31 23:59:59;ATMO NORMANDIE;FR28ZRE02;ZR NORMANDIE;FR21038;Cherbourg Hotel de Ville;Urbaine;O3;Fond;Oui;mesures fixes;Moy. annuelle;61.0;61.00117536436302;µg-m3;;;;R;1;49.64225;-1.624361;Cherbourg-en-Cotentin;50129;49.633412156;-1.63390160204;Cherbourg-en-Cotentin;41.7;78028.0;2165.0;1138.4;74.7;22650.0;19.4;3.4;23.0;4.0
2022/01/01 00:00:00;2022/12/31 23:59:59;ATMO NORMANDIE;FR28ZRE02;ZR NORMANDIE;FR21038;Cherbourg Hotel de Ville;Urbaine;O3;Fond;Oui;mesures fixes;Moy. annuelle;61.0;61.00117536436302;µg-m3;;;;R;1;49.64225;-1.624361;Cherbourg-en-Cotentin;50129;49.633412156;-1.63390160204;Cherbourg-en-Cotentin;41.7;78028.0;2165.0;1138.4;74.7;22650.0;19.4;3.4;23.0;4.0
2022/01/01 00:00:00;2022/12/31 23:59:59;ATMO NORMANDIE;FR28ZRE02;ZR NORMANDIE;FR21038;Cherbourg Hotel de Ville;Urbaine;O3;Fond;Oui;mesures fixes;Moy. annuelle;61.0;61.00117536436302;µg-m3;;;;R;1;49.64225;-1.624361;Cherbourg-en-Cotentin;50129;49.633412156;-1.63390160204;Cherbourg-en-Cotentin;41.7;78028.0;2165.0;1138.4;74.7;22650.0;19.4;3.4;23.0;4.0
2022/01/01 00:00:00;2022/12/31 23:59:59;ATMO NORMANDIE;FR28ZRE02;ZR NORMANDIE;FR21038;Cherbourg Hotel de Ville;Urbaine;O3;Fond;Oui;mesures fixes;Moy. annuelle;61.0;61.00117536436302;µg-m3;;;;R;1;49.64225;-1.624361;Cherbourg-en-Cotentin;50129;49.633412156;-1.63390160204;Cherbourg-en-Cotentin;41.7;78028.0;2165.0;1138.4;74.7;22650.0;19.4;3.4;23.0;4.0
2022/01/01 00:00:00;2022/12/31 23:59:59;ATMO NORMANDIE;FR28ZRE02;ZR NORMANDIE;FR21040;Saint-Lô Eglise;Urbaine;O3;Fond;Oui;mesures fixes;Moy. annuelle;57.0;57.49691725876698;µg-m3;;;;R;1;49.11639;-1.084722;Saint-Lô;50502;49.1099624249;-1.07755642702;Saint-Lô;32.3;19352.0;1091.0;834.5;72.7;21010.0;5.6;2.8;9.0;0.0
2022/01/01 00:00:00;2022/12/31 23:59:59;ATMO NORMANDIE;FR28ZRE02;ZR NORMANDIE;FR21050;La Coulonche MERA;Rurale nationale;O3;Fond;Oui;mesures fixes;Moy. annuelle;68.0;68.35079328581274;µg-m3;;;;R;1;48.645;-0.458333;La Coulonche;61124;48.6375516967;-0.466617045312;La Coulonche;14.3;498.0;9.0;34.8;79.8;22250.0;0.0;69.4;0.0;0.0
2022/01/01 00:00:00;2022/12/31 23:59:59;ATMO GRAND EST;FR44ZRE01;ZR GRAND-EST;FR22019;SCHOENECK (19);Périurbaine;O3;Fond;Oui;mesures fixes;Moy. annuelle;57.0;57.44719251336908;µg-m3;;;;R;1;49.220364;6.925833;Schœneck;57638;49.2131743265;6.92043725941;Schœneck;17.3;2442.0;33.0;601.5;77.0;24080.0;48.7;1.0;0.0;0.0
2022/01/01 00:00:00;2022/12/31 23:59:59;ATMO GRAND EST;FR44ZRE01;ZR GRAND-EST;FR22054;Station de FORBACH;Urbaine;O3;Fond;Oui;mesures fixes;Moy. annuelle;60.0;59.578854280795206;µg-m3;;;;N;-1;49.18742;6.910867;Forbach;57227;49.1912650369;6.89275798526;Forbach;37.7;21111.0;682.0;1293.6;63.7;17540.0;9.1;3.8;3.0;0.0
2022/01/01 00:00:00;2022/12/31 23:59:59;ATMO GRAND EST;FR44ZRE01;ZR GRAND-EST;FR22054;Station de FORBACH;Urbaine;O3;Fond;Oui;mesures fixes;Moy. annuelle;60.0;59.578854280795206;µg-m3;;;;N;-1;49.18742;6.910867;Forbach;57227;49.1912650369;6.89275798526;Forbach;37.7;21111.0;682.0;1293.6;63.7;17540.0;9.1;3.8;3.0;0.0
2022/01/01 00:00:00;2022/12/31 23:59:59;ATMO GRAND EST;FR44ZRE01;ZR GRAND-EST;FR22054;Station de FORBACH;Urbaine;O3;Fond;Oui;mesures fixes;Moy. annuelle;60.0;59.578854280795206;µg-m3;;;;N;-1;49.18742;6.910867;Forbach;57227;49.1912650369;6.89275798526;Forbach;37.7;21111.0;682.0;1293.6;63.7;17540.0;9.1;3.8;3.0;0.0
2022/01/01 00:00:00;2022/12/31 23:59:59;AIR PAYS DE LA LOIRE;FR52ZRE01;ZR PAYS-DE-LA-LOIRE;FR23078;SAINT EXUPERY;Urbaine;O3;Fond;Oui;mesures fixes;Moy. annuelle;59.0;59.16091585575277;µg-m3;;;;R;1;47.054443;-0.886111;Cholet;49099;47.0454402992;-0.877886189605;Cholet;40.1;54074.0;2258.0;618.2;76.5;21960.0;26.1;4.4;18.0;1.0
2022/01/01 00:00:00;2022/12/31 23:59:59;AIR PAYS DE LA LOIRE;FR52ZRE01;ZR PAYS-DE-LA-LOIRE;FR23078;SAINT EXUPERY;Urbaine;O3;Fond;Oui;mesures fixes;Moy. annuelle;59.0;59.16091585575277;µg-m3;;;;R;1;47.054443;-0.886111;Cholet;49099;47.0454402992;-0.877886189605;Cholet;40.1;54074.0;2258.0;618.2;76.5;21960.0;26.1;4.4;18.0;1.0
2022/01/01 00:00:00;2022/12/31 23:59:59;AIR PAYS DE LA LOIRE;FR52ZAG01;ZAG NANTES-SAINT-NAZAIRE;FR23110;LEON BLUM;Urbaine;O3;Fond;Oui;mesures fixes;Moy. annuelle;62.0;61.76157380815618;µg-m3;;;;R;1;47.26412;-2.249858;Saint-Nazaire;44184;47.2802857028;-2.25379927249;Saint-Nazaire;32.1;73111.0;2188.0;1562.5;74.1;21900.0;26.5;4.4;11.0;1.0
2022/01/01 00:00:00;2022/12/31 23:59:59;AIR PAYS DE LA LOIRE;FR52ZAG01;ZAG NANTES-SAINT-NAZAIRE;FR23110;LEON BLUM;Urbaine;O3;Fond;Oui;mesures fixes;Moy. annuelle;62.0;61.76157380815618;µg-m3;;;;R;1;47.26412;-2.249858;Saint-Nazaire;44184;47.2802857028;-2.25379927249;Saint-Nazaire;32.1;73111.0;2188.0;1562.5;74.1;21900.0;26.5;4.4;11.0;1.0
2022/01/01 00:00:00;2022/12/31 23:59:59;AIR PAYS DE LA LOIRE;FR52ZAR03;ZAR LAVAL;FR23123;MAZAGRAN;Urbaine;O3;Fond;Oui;mesures fixes;Moy. annuelle;55.0;54.98716773602212;µg-m3;;;;R;1;48.06943;-0.767692;Laval;53130;48.0608565468;-0.766005687142;Laval;41.5;49474.0;2108.0;1445.8;72.8;21660.0;10.7;3.4;13.0;0.0
2022/01/01 00:00:00;2022/12/31 23:59:59;AIR PAYS DE LA LOIRE;FR52ZRE01;ZR PAYS-DE-LA-LOIRE;FR23124;LA TARDIERE;Rurale nationale;O3;Fond;Oui;mesures fixes;Moy. annuelle;59.0;58.59189374856901;µg-m3;;;;R;1;46.656685;-0.743681;Terval;85289;46.663737434;-0.727562430214;Terval;36.5;2173.0;74.0;47.5;75.3;21160.0;29.3;14.7;0.0;1.0
2022/01/01 00:00:00;2022/12/31 23:59:59;AIR PAYS DE LA LOIRE;FR52ZAR01;ZAR ANGERS-LOIRE;FR23150;APPENTIS;Urbaine;O3;Fond;Oui;mesures fixes;Moy. annuelle;59.0;58.61301700367641;µg-m3;;;;R;1;47.44739;-0.550067;Angers;49007;47.476837416;-0.556125995444;Angers;43.8;157555.0;5387.0;3688.9;69.9;21450.0;3.4;1.7;26.0;1.0
2022/01/01 00:00:00;2022/12/31 23:59:59;AIR PAYS DE LA LOIRE;FR52ZAR01;ZAR ANGERS-LOIRE;FR23150;APPENTIS;Urbaine;O3;Fond;Oui;mesures fixes;Moy. annuelle;59.0;58.61301700367641;µg-m3;;;;R;1;47.44739;-0.550067;Angers;49007;47.476837416;-0.556125995444;Angers;43.8;157555.0;5387.0;3688.9;69.9;21450.0;3.4;1.7;26.0;1.0
2022/01/01 00:00:00;2022/12/31 23:59:59;AIR PAYS DE LA LOIRE;FR52ZRE01;ZR PAYS-DE-LA-LOIRE;FR23152;DELACROIX;Urbaine;O3;Fond;Oui;mesures fixes;Moy. annuelle;57.0;57.49336612146863;µg-m3;;;;R;1;46.6607;-1.436831;La Roche-sur-Yon;85191;46.6675261644;-1.4077954093;La Roche-sur-Yon;40.2;54699.0;2599.0;625.0;72.2;22310.0;8.0;4.2;10.0;1.0
2022/01/01 00:00:00;2022/12/31 23:59:59;AIR PAYS DE LA LOIRE;FR52ZAG01;ZAG NANTES-SAINT-NAZAIRE;FR23157;EPINETTES;Périurbaine;O3;Fond;Oui;mesures fixes;Moy. annuelle;62.0;62.35889845094665;µg-m3;;;;R;1;47.146088;-1.690269;Bouaye;44018;47.1473396882;-1.6725437059;Bouaye;34.1;8281.0;240.0;598.8;79.1;25390.0;11.7;9.8;2.0;0.0
2022/01/01 00:00:00;2022/12/31 23:59:59;AIR PAYS DE LA LOIRE;FR52ZRE01;ZR PAYS-DE-LA-LOIRE;FR23163;Fillé;Périurbaine;O3;Fond;Oui;mesures fixes;Moy. annuelle;54.0;53.98735751295329;µg-m3;;;;R;1;47.92192;0.151825;Spay;72344;47.9251136777;0.151021420961;Spay;41.1;2821.0;69.0;198.4;74.4;25090.0;37.0;16.8;0.0;1.0
2022/01/01 00:00:00;2022/12/31 23:59:59;AIR PAYS DE LA LOIRE;FR52ZAR01;ZAR ANGERS-LOIRE;FR23175;CLOS DES BEAUVAIS;Périurbaine;O3;Fond;Oui;mesures fixes;Moy. annuelle;59.0;59.43006416131985;µg-m3;;;;R;1;47.430164;-0.610064;Bouchemaine;49035;47.4307669874;-0.627122133651;Bouchemaine;27.5;6635.0;149.0;334.9;76.5;28850.0;11.4;8.1;0.0;1.0
2022/01/01 00:00:00;2022/12/31 23:59:59;AIR PAYS DE LA LOIRE;FR52ZRE01;ZR PAYS-DE-LA-LOIRE;FR23177;SAINT-DENIS D'ANJOU;Rurale régionale;O3;Fond;Oui;mesures fixes;Moy. annuelle;59.0;59.362010062010114;µg-m3;;;;R;1;47.78773;-0.444044;Saint-Denis-d'Anjou;53210;47.7899907217;-0.443836396748;Saint-Denis-d'Anjou;9.6;1512.0;35.0;36.1;78.4;21580.0;42.8;8.8;1.0;0.0
2022/01/01 00:00:00;2022/12/31 23:59:59;AIR PAYS DE LA LOIRE;FR52ZAR02;ZAR LE-MANS;FR23182;SOURCES;Urbaine;O3;Fond;Oui;mesures fixes;Moy. annuelle;60.0;59.69657043879918;µg-m3;;;;R;1;47.971066;0.221422;Le Mans;72181;47.9885256718;0.200030493539;Le Mans;47.6;145182.0;4784.0;2749.1;72.7;21180.0;8.4;3.6;24.0;0.0
2022/01/01 00:00:00;2022/12/31 23:59:59;AIR PAYS DE LA LOIRE;FR52ZAR02;ZAR LE-MANS;FR23182;SOURCES;Urbaine;O3;Fond;Oui;mesures fixes;Moy. annuelle;60.0;59.69657043879918;µg-m3;;;;R;1;47.971066;0.221422;Le Mans;72181;47.9885256718;0.200030493539;Le Mans;47.6;145182.0;4784.0;2749.1;72.7;21180.0;8.4;3.6;24.0;0.0
2022/01/01 00:00:00;2022/12/31 23:59:59;AIR PAYS DE LA LOIRE;FR52ZAG01;ZAG NANTES-SAINT-NAZAIRE;FR23188;CIM BOUTEILLERIE;Urbaine;O3;Fond;Oui;mesures fixes;Moy. annuelle;57.0;56.577105657333824;µg-m3;;;;R;1;47.2225;-1.5375;Nantes;44109;47.2316356767;-1.54831008605;Nantes;52.2;325070.0;11775.0;4986.5;74.0;24170.0;4.3;2.2;49.0;1.0
2022/01/01 00:00:00;2022/12/31 23:59:59;AIR PAYS DE LA LOIRE;FR52ZAG01;ZAG NANTES-SAINT-NAZAIRE;FR23188;CIM BOUTEILLERIE;Urbaine;O3;Fond;Oui;mesures fixes;Moy. annuelle;57.0;56.577105657333824;µg-m3;;;;R;1;47.2225;-1.5375;Nantes;44109;47.2316356767;-1.54831008605;Nantes;52.2;325070.0;11775.0;4986.5;74.0;24170.0;4.3;2.2;49.0;1.0
2022/01/01 00:00:00;2022/12/31 23:59:59;AIR PAYS DE LA LOIRE;FR52ZAG01;ZAG NANTES-SAINT-NAZAIRE;FR23188;CIM BOUTEILLERIE;Urbaine;O3;Fond;Oui;mesures fixes;Moy. annuelle;57.0;56.577105657333824;µg-m3;;;;R;1;47.2225;-1.5375;Nantes;44109;47.2316356767;-1.54831008605;Nantes;52.2;325070.0;11775.0;4986.5;74.0;24170.0;4.3;2.2;49.0;1.0
2022/01/01 00:00:00;2022/12/31 23:59:59;AIR PAYS DE LA LOIRE;FR52ZAG01;ZAG NANTES-SAINT-NAZAIRE;FR23188;CIM BOUTEILLERIE;Urbaine;O3;Fond;Oui;mesures fixes;Moy. annuelle;57.0;56.577105657333824;µg-m3;;;;R;1;47.2225;-1.5375;Nantes;44109;47.2316356767;-1.54831008605;Nantes;52.2;325070.0;11775.0;4986.5;74.0;24170.0;4.3;2.2;49.0;1.0
2022/01/01 00:00:00;2022/12/31 23:59:59;AIR PAYS DE LA LOIRE;FR52ZAG01;ZAG NANTES-SAINT-NAZAIRE;FR23230;GASPARD;Périurbaine;O3;Fond;Oui;mesures fixes;Moy. annuelle;66.0;65.79370853351638;µg-m3;;;;R;1;47.253056;-2.332067;Pornichet;44132;47.2615791665;-2.31415650821;Pornichet;63.5;12530.0;486.0;989.0;76.4;27460.0;5.4;7.9;9.0;5.0
2022/01/01 00:00:00;2022/12/31 23:59:59;ATMO SUD;FR93ZAG02;ZAG NICE;FR24007;ANTIBES JEAN MOULIN;Périurbaine;O3;Fond;Oui;mesures fixes;Moy. annuelle;56.0;55.77617848970251;µg-m3;;;;R;1;43.598803;7.093153;Antibes;6004;;;Antibes;53.0;76612.0;3754.0;2893.2;77.7;24410.0;6.8;5.2;61.0;5.0
2022/01/01 00:00:00;2022/12/31 23:59:59;ATMO SUD;FR93ZAG02;ZAG NICE;FR24009;CANNES BROUSSAILLES;Urbaine;O3;Fond;Oui;mesures fixes;Moy. annuelle;66.0;66.4138175985335;µg-m3;;;;R;1;43.558389;7.005919;Cannes;6029;;;Cannes;59.0;74040.0;4759.0;3773.7;73.5;21210.0;7.4;2.6;91.0;1.0
2022/01/01 00:00:00;2022/12/31 23:59:59;ATMO SUD;FR93ZAG02;ZAG NICE;FR24011;NICE OUEST BOTANIQUE;Périurbaine;O3;Fond;Oui;mesures fixes;Moy. annuelle;73.0;72.57943361188478;µg-m3;;;;R;1;43.685188;7.211174;Nice;6088;;;Nice;48.1;353701.0;16194.0;4918.0;72.0;21570.0;3.5;4.9;161.0;0.0
